{"meta": {"city": "Manhattan, NYC", "date": "2025-07-15", "price_unit": "USD/kWh", "timezone": "America/New_York"}, "depot": {"id": "DEPOT1", "lat": 40.756, "lon": -73.998, "start_min": 480, "end_min": 1200}, "vehicles": [{"id": "V1", "battery_kwh": 45.0, "cons_kwh_per_km": 0.23, "cap_kg": 600.0, "depot": "DEPOT1"}, {"id": "V2", "battery_kwh": 45.0, "cons_kwh_per_km": 0.23, "cap_kg": 600.0, "depot": "DEPOT1"}, {"id": "V3", "battery_kwh": 45.0, "cons_kwh_per_km": 0.23, "cap_kg": 600.0, "depot": "DEPOT1"}, {"id": "V4", "battery_kwh": 45.0, "cons_kwh_per_km": 0.23, "cap_kg": 600.0, "depot": "DEPOT1"}], "customers": [{"cust_id": "C000", "lat": 40.7583833, "lon": -73.9590324, "tw_start_min": 766, "tw_end_min": 997, "demand_kg": 36}, {"cust_id": "C001", "lat": 40.7092439, "lon": -73.995933, "tw_start_min": 690, "tw_end_min": 861, "demand_kg": 23}, {"cust_id": "C002", "lat": 40.801342, "lon": -73.945968, "tw_start_min": 704, "tw_end_min": 1026, "demand_kg": 58}, {"cust_id": "C003", "lat": 40.7656797, "lon": -73.976244, "tw_start_min": 755, "tw_end_min": 913, "demand_kg": 54}, {"cust_id": "C004", "lat": 40.7374172, "lon": -73.974504, "tw_start_min": 678, "tw_end_min": 1003, "demand_kg": 19}, {"cust_id": "C005", "lat": 40.713449, "lon": -73.9984987, "tw_start_min": 726, "tw_end_min": 993, "demand_kg": 35}, {"cust_id": "C006", "lat": 40.7496684, "lon": -73.9697413, "tw_start_min": 740, "tw_end_min": 887, "demand_kg": 56}, {"cust_id": "C007", "lat": 40.818484, "lon": -73.9552918, "tw_start_min": 594, "tw_end_min": 724, "demand_kg": 52}, {"cust_id": "C008", "lat": 40.7031234, "lon": -74.0130194, "tw_start_min": 553, "tw_end_min": 779, "demand_kg": 45}, {"cust_id": "C009", "lat": 40.7965554, "lon": -73.9702876, "tw_start_min": 612, "tw_end_min": 740, "demand_kg": 41}, {"cust_id": "C010", "lat": 40.7051688, "lon": -74.0099816, "tw_start_min": 608, "tw_end_min": 761, "demand_kg": 12}, {"cust_id": "C011", "lat": 40.778601, "lon": -73.98161, "tw_start_min": 749, "tw_end_min": 992, "demand_kg": 47}, {"cust_id": "C012", "lat": 40.857841, "lon": -73.932043, "tw_start_min": 759, "tw_end_min": 1111, "demand_kg": 33}, {"cust_id": "C013", "lat": 40.7819606, "lon": -73.9754991, "tw_start_min": 541, "tw_end_min": 772, "demand_kg": 14}, {"cust_id": "C014", "lat": 40.8168973, "lon": -73.9572758, "tw_start_min": 659, "tw_end_min": 973, "demand_kg": 22}, {"cust_id": "C015", "lat": 40.774556, "lon": -73.9896514, "tw_start_min": 737, "tw_end_min": 1077, "demand_kg": 37}, {"cust_id": "C016", "lat": 40.7176217, "lon": -74.0002647, "tw_start_min": 571, "tw_end_min": 888, "demand_kg": 46}, {"cust_id": "C017", "lat": 40.8178879, "lon": -73.941924, "tw_start_min": 731, "tw_end_min": 1002, "demand_kg": 35}, {"cust_id": "C018", "lat": 40.7224119, "lon": -73.9871601, "tw_start_min": 568, "tw_end_min": 793, "demand_kg": 40}, {"cust_id": "C019", "lat": 40.7998235, "lon": -73.9683098, "tw_start_min": 652, "tw_end_min": 895, "demand_kg": 53}, {"cust_id": "C020", "lat": 40.7705251, "lon": -73.9684509, "tw_start_min": 735, "tw_end_min": 918, "demand_kg": 44}, {"cust_id": "C021", "lat": 40.7744841, "lon": -73.9914364, "tw_start_min": 612, "tw_end_min": 851, "demand_kg": 28}, {"cust_id": "C022", "lat": 40.8235986, "lon": -73.9377556, "tw_start_min": 621, "tw_end_min": 832, "demand_kg": 42}, {"cust_id": "C023", "lat": 40.7643299, "lon": -73.9987098, "tw_start_min": 606, "tw_end_min": 785, "demand_kg": 39}, {"cust_id": "C024", "lat": 40.8483863, "lon": -73.9376884, "tw_start_min": 712, "tw_end_min": 1070, "demand_kg": 15}, {"cust_id": "C025", "lat": 40.8211204, "lon": -73.9357506, "tw_start_min": 601, "tw_end_min": 723, "demand_kg": 12}, {"cust_id": "C026", "lat": 40.76837, "lon": -73.992786, "tw_start_min": 777, "tw_end_min": 920, "demand_kg": 43}, {"cust_id": "C027", "lat": 40.7459215, "lon": -73.9863915, "tw_start_min": 646, "tw_end_min": 812, "demand_kg": 29}, {"cust_id": "C028", "lat": 40.8217009, "lon": -73.9529081, "tw_start_min": 654, "tw_end_min": 1006, "demand_kg": 39}, {"cust_id": "C029", "lat": 40.722384, "lon": -74.003768, "tw_start_min": 661, "tw_end_min": 947, "demand_kg": 26}, {"cust_id": "C030", "lat": 40.8328806, "lon": -73.9420072, "tw_start_min": 679, "tw_end_min": 1010, "demand_kg": 21}, {"cust_id": "C031", "lat": 40.708574, "lon": -74.0001685, "tw_start_min": 672, "tw_end_min": 840, "demand_kg": 17}, {"cust_id": "C032", "lat": 40.7406193, "lon": -73.9894421, "tw_start_min": 662, "tw_end_min": 955, "demand_kg": 29}, {"cust_id": "C033", "lat": 40.7603711, "lon": -73.9737664, "tw_start_min": 778, "tw_end_min": 986, "demand_kg": 50}, {"cust_id": "C034", "lat": 40.7211632, "lon": -73.9830269, "tw_start_min": 733, "tw_end_min": 970, "demand_kg": 30}, {"cust_id": "C035", "lat": 40.8102846, "lon": -73.9435449, "tw_start_min": 730, "tw_end_min": 850, "demand_kg": 28}, {"cust_id": "C036", "lat": 40.750272, "lon": -73.9791501, "tw_start_min": 708, "tw_end_min": 976, "demand_kg": 38}, {"cust_id": "C037", "lat": 40.8163681, "lon": -73.9579439, "tw_start_min": 689, "tw_end_min": 1008, "demand_kg": 58}, {"cust_id": "C038", "lat": 40.7552565, "lon": -73.9986588, "tw_start_min": 621, "tw_end_min": 900, "demand_kg": 29}, {"cust_id": "C039", "lat": 40.7748544, "lon": -73.9806716, "tw_start_min": 777, "tw_end_min": 934, "demand_kg": 39}], "chargers": [{"id": 263043, "name": "Park-it Area Garage - Tesla Destination", "lat": 40.7156449097173, "lon": -73.9808096971768, "power_kw": 3.7, "plugs": 1}, {"id": 102832, "name": "Delancey & Essex Municipal Parking Garage", "lat": 40.719051, "lon": -73.988181, "power_kw": 150.0, "plugs": 4}, {"id": 353340, "name": "DES - Delancey and Essex Municipal Parking Garage", "lat": 40.719319, "lon": -73.988197, "power_kw": 50.0, "plugs": 3}, {"id": 353310, "name": "iPark - 59 Allen Street Garage", "lat": 40.717195, "lon": -73.991658, "power_kw": 3.7, "plugs": 1}, {"id": 105373, "name": "Ipark 59-63 Allen Street", "lat": 40.717143, "lon": -73.991597, "power_kw": 10.0, "plugs": 1}, {"id": 353308, "name": "iPark 59-63 Allen Street - Tesla Destination", "lat": 40.717143, "lon": -73.991597, "power_kw": 3.7, "plugs": 1}, {"id": 108933, "name": "New York, Ny - 59 Allen Street Supercharger", "lat": 40.717153, "lon": -73.991869, "power_kw": 72.0, "plugs": 1}, {"id": 67359, "name": "ParkIt - Tesla", "lat": 40.7199913, "lon": -74.0074134, "power_kw": 8.0, "plugs": 1}, {"id": 90713, "name": "Icon 376 Greenwich Street", "lat": 40.719825, "lon": -74.010137, "power_kw": 16.0, "plugs": 1}, {"id": 105370, "name": "Icon Parking 237 West Thames", "lat": 40.708165, "lon": -74.016641, "power_kw": 10.0, "plugs": 1}, {"id": 353223, "name": "Icon Parking 237 West Thames - Tesla Destination", "lat": 40.708165, "lon": -74.016641, "power_kw": 3.7, "plugs": 1}, {"id": 18343, "name": "MP 225 LLC", "lat": 40.7092248, "lon": -74.0161545, "power_kw": 3.0, "plugs": 2}, {"id": 125171, "name": "Center Park 250 Albany", "lat": 40.709803, "lon": -74.015771, "power_kw": 10.0, "plugs": 1}, {"id": 353231, "name": "Center Park 250 Albany - Tesla Destination", "lat": 40.709803, "lon": -74.015771, "power_kw": 3.7, "plugs": 1}, {"id": 353207, "name": "25 Broadway", "lat": 40.70568, "lon": -74.0136, "power_kw": 3.7, "plugs": 1}, {"id": 48233, "name": "Quik Park - Tesla", "lat": 40.7070972, "lon": -74.0168867, "power_kw": 16.0, "plugs": 1}, {"id": 92684, "name": "GGMC the Cove", "lat": 40.707738, "lon": -74.016845, "power_kw": 16.0, "plugs": 1}, {"id": 100573, "name": "GGMC Parking Battery Place", "lat": 40.706965, "lon": -74.017971, "power_kw": 8.0, "plugs": 1}, {"id": 353216, "name": "GGMC Parking Battery Place - Tesla Destination", "lat": 40.706965, "lon": -74.017971, "power_kw": 3.7, "plugs": 1}, {"id": 246271, "name": "Quik Park Little West LLC - Tesla Destination", "lat": 40.70663, "lon": -74.016916, "power_kw": 3.7, "plugs": 1}, {"id": 353202, "name": "The Ocean - 1 West St Garage", "lat": 40.705242, "lon": -74.016123, "power_kw": 3.7, "plugs": 1}, {"id": 82099, "name": "Icon Parking 14-26 William Street", "lat": 40.704514, "lon": -74.01074, "power_kw": 8.0, "plugs": 1}, {"id": 353212, "name": "The State-Whitehall Co - Tesla Destination", "lat": 40.706103, "lon": -74.007398, "power_kw": 3.7, "plugs": 1}, {"id": 67354, "name": "Andaz Wall Street - Tesla", "lat": 40.7051404, "lon": -74.0079954, "power_kw": 8.0, "plugs": 1}, {"id": 81767, "name": "Ipark Nyc 75 Wall Street", "lat": 40.704776, "lon": -74.008276, "power_kw": 8.0, "plugs": 1}, {"id": 81794, "name": "Icon Parking Wall Park", "lat": 40.705922, "lon": -74.010175, "power_kw": 16.0, "plugs": 1}, {"id": 353246, "name": "25 Park Row", "lat": 40.71145, "lon": -74.00745, "power_kw": 3.7, "plugs": 1}, {"id": 353254, "name": "Barclay Tower - Garage", "lat": 40.712224, "lon": -74.009106, "power_kw": 3.7, "plugs": 1}, {"id": 105395, "name": "Icon Parking 54 Murray Street", "lat": 40.714266, "lon": -74.009921, "power_kw": 10.0, "plugs": 1}, {"id": 353274, "name": "Icon Parking 54 Murray Street - Tesla Destination", "lat": 40.714266, "lon": -74.009921, "power_kw": 3.7, "plugs": 1}, {"id": 62139, "name": "BEAM CHARGING", "lat": 40.7142163, "lon": -74.0106122, "power_kw": 3.0, "plugs": 1}, {"id": 353278, "name": "75 Park Place", "lat": 40.714463, "lon": -74.01098, "power_kw": 3.7, "plugs": 1}, {"id": 226797, "name": "200 Liberty", "lat": 40.710179, "lon": -74.013169, "power_kw": 3.7, "plugs": 1}, {"id": 92561, "name": "Standard Parking Gateway Plaza Garage", "lat": 40.711145, "lon": -74.016332, "power_kw": 16.0, "plugs": 1}, {"id": 71522, "name": "ALBANESE ORG", "lat": 40.7151023, "lon": -74.0163292, "power_kw": 3.0, "plugs": 1}, {"id": 148619, "name": "Manhattan, Ny - Vesey Street Supercharger", "lat": 40.7143965, "lon": -74.0164439, "power_kw": 72.0, "plugs": 1}, {"id": 246274, "name": "250 Vesey", "lat": 40.714113, "lon": -74.01581, "power_kw": 3.7, "plugs": 1}, {"id": 97646, "name": "Central Parking 200 Chambers", "lat": 40.716256, "lon": -74.012543, "power_kw": 8.0, "plugs": 1}, {"id": 353293, "name": "Central Parking 200 Chambers - Tesla Destination", "lat": 40.716256, "lon": -74.012543, "power_kw": 3.7, "plugs": 1}, {"id": 353295, "name": "SP+ - 200 Chambers Street Garage", "lat": 40.7163, "lon": -74.01258, "power_kw": 3.7, "plugs": 1}, {"id": 353298, "name": "Liberty Green - Garage", "lat": 40.7167, "lon": -74.01432, "power_kw": 3.7, "plugs": 1}, {"id": 246279, "name": "Tribeca Green", "lat": 40.71695, "lon": -74.014948, "power_kw": 3.7, "plugs": 1}, {"id": 246278, "name": "20RTAC GARAGE TOP", "lat": 40.716132, "lon": -74.015557, "power_kw": 3.7, "plugs": 1}, {"id": 90296, "name": "Icon Liberty View Parking", "lat": 40.716079, "lon": -74.015929, "power_kw": 16.0, "plugs": 1}, {"id": 140752, "name": "Tribeca Park", "lat": 40.717717, "lon": -74.015049, "power_kw": 3.7, "plugs": 1}, {"id": 82195, "name": "Icon Parking 308 Greenwich", "lat": 40.717686, "lon": -74.010613, "power_kw": 8.0, "plugs": 1}, {"id": 353288, "name": "270 Greenwich St - Tesla Destination", "lat": 40.715534, "lon": -74.012052, "power_kw": 3.7, "plugs": 1}, {"id": 97636, "name": "Standard Parking 270 Greenwich", "lat": 40.715071, "lon": -74.012203, "power_kw": 8.0, "plugs": 1}, {"id": 353285, "name": "Standard Parking 270 Greenwich - Tesla Destination", "lat": 40.715071, "lon": -74.012203, "power_kw": 3.7, "plugs": 1}, {"id": 97819, "name": "MPG 121 Reade Street", "lat": 40.716268, "lon": -74.009491, "power_kw": 8.0, "plugs": 1}, {"id": 353294, "name": "MPG 121 Reade Street - Tesla Destination", "lat": 40.716268, "lon": -74.009491, "power_kw": 3.7, "plugs": 1}, {"id": 246276, "name": "123 Leonard St", "lat": 40.7160793, "lon": -74.0021648, "power_kw": 3.7, "plugs": 1}, {"id": 353292, "name": "123 Leonard St", "lat": 40.7160793, "lon": -74.0021648, "power_kw": 3.7, "plugs": 1}, {"id": 226804, "name": "170 Park Row", "lat": 40.713246, "lon": -74.001, "power_kw": 3.7, "plugs": 1}, {"id": 294558, "name": "10 Reade St", "lat": 40.7138982, "lon": -74.00434, "power_kw": 3.7, "plugs": 1}, {"id": 142405, "name": "Environmental Protection Agency", "lat": 40.714723, "lon": -74.005143, "power_kw": 3.7, "plugs": 1}, {"id": 277159, "name": "Heritage Trinity Commons SPE LLC", "lat": 40.7127753, "lon": -74.0059728, "power_kw": 3.7, "plugs": 1}, {"id": 90360, "name": "Rapidpark 25-27 Beekman Street", "lat": 40.710786, "lon": -74.006017, "power_kw": 16.0, "plugs": 1}, {"id": 100951, "name": "Icon Parking 70 Gold Street", "lat": 40.710019, "lon": -74.004385, "power_kw": 8.0, "plugs": 1}, {"id": 353234, "name": "Icon Parking 70 Gold Street - Tesla Destination", "lat": 40.710019, "lon": -74.004385, "power_kw": 3.7, "plugs": 1}, {"id": 226808, "name": "IPark-170 Park Row", "lat": 40.713832, "lon": -74.000059, "power_kw": 3.7, "plugs": 1}, {"id": 100362, "name": "New York, NY - Mott Street (Valet & Pay to Park)", "lat": 40.717522, "lon": -73.997302, "power_kw": 72.0, "plugs": 1}, {"id": 353313, "name": "Mott Street Parking - Tesla Supercharger", "lat": 40.717522, "lon": -73.997302, "power_kw": 50.0, "plugs": 1}, {"id": 67358, "name": "iPark - Tesla", "lat": 40.7169064, "lon": -73.9964708, "power_kw": 8.0, "plugs": 1}, {"id": 478501, "name": "Essex St Garage", "lat": 40.71630804472258, "lon": -73.99513134657133, "power_kw": 0.0, "plugs": 3}, {"id": 105416, "name": "Icon Parking 240 East Broadway", "lat": 40.714821, "lon": -73.987138, "power_kw": 10.0, "plugs": 1}, {"id": 353282, "name": "Icon Parking 240 East Broadway - Tesla Destination", "lat": 40.714821, "lon": -73.987138, "power_kw": 3.7, "plugs": 1}, {"id": 353237, "name": "Revel - Pier 36", "lat": 40.71029398, "lon": -73.98476797, "power_kw": 320.0, "plugs": 2}, {"id": 71521, "name": "Icon Parking - Tesla", "lat": 40.7076664, "lon": -74.004679, "power_kw": 6.0, "plugs": 1}, {"id": 353219, "name": "Icon 299 Peal Street Seaport Parking - Tesla Destination", "lat": 40.707679, "lon": -74.004687, "power_kw": 3.7, "plugs": 1}, {"id": 81795, "name": "Ipark Nyc 400 E 35th Nyu", "lat": 40.743971, "lon": -73.971882, "power_kw": 8.0, "plugs": 1}, {"id": 246322, "name": "Imperial Parking- 332-342 E 34th St New York, New York 10016", "lat": 40.7440113, "lon": -73.9741155, "power_kw": 3.7, "plugs": 1}, {"id": 82268, "name": "Icon Parking 155 E 29th Street", "lat": 40.742821, "lon": -73.980913, "power_kw": 8.0, "plugs": 1}, {"id": 353606, "name": "Kips Bay Ct - Garage", "lat": 40.741528, "lon": -73.978103, "power_kw": 3.7, "plugs": 1}, {"id": 263052, "name": "EVPassport - 200 E 24th St Garage", "lat": 40.7392528900457, "lon": -73.9823287610015, "power_kw": 3.7, "plugs": 1}, {"id": 97576, "name": "Icon Parking 322 23RD Street", "lat": 40.737533, "lon": -73.980437, "power_kw": 8.0, "plugs": 1}, {"id": 353548, "name": "Icon Parking 322 23rd Street - Tesla Destination", "lat": 40.737533, "lon": -73.980437, "power_kw": 3.7, "plugs": 1}, {"id": 67365, "name": "Icon Parking - Tesla", "lat": 40.7357214, "lon": -73.9829391, "power_kw": 8.0, "plugs": 1}, {"id": 246311, "name": "LIN-DAN RICK", "lat": 40.736148, "lon": -73.980154, "power_kw": 3.7, "plugs": 1}, {"id": 246313, "name": "Bonneville 329 E 22nd St.", "lat": 40.736763, "lon": -73.979743, "power_kw": 3.7, "plugs": 1}, {"id": 353532, "name": "Little Man Parking", "lat": 40.736778, "lon": -73.979688, "power_kw": 3.7, "plugs": 1}, {"id": 226844, "name": "VISN 2/NYHHCS/MANHATTAN", "lat": 40.737182, "lon": -73.976713, "power_kw": 3.7, "plugs": 1}, {"id": 353541, "name": "Waterside Plaza Garage", "lat": 40.7372102921242, "lon": -73.97408545017244, "power_kw": 3.7, "plugs": 1}, {"id": 353601, "name": "Central Parking - 350 E 30th Street", "lat": 40.741065, "lon": -73.975788, "power_kw": 3.7, "plugs": 1}, {"id": 28406, "name": "CARCHARGING", "lat": 40.741368, "lon": -73.975668, "power_kw": 3.0, "plugs": 2}, {"id": 90288, "name": "Rapidpark 575 1st Avenue", "lat": 40.742735, "lon": -73.974296, "power_kw": 16.0, "plugs": 1}, {"id": 353626, "name": "Riverview East - Garage", "lat": 40.7438, "lon": -73.9769, "power_kw": 3.7, "plugs": 1}, {"id": 92241, "name": "Ipark Nyu 377 E 33RD Street", "lat": 40.743405, "lon": -73.974735, "power_kw": 16.0, "plugs": 1}, {"id": 467174, "name": "SWTCH Energy", "lat": 40.732666, "lon": -73.9607066, "power_kw": 3.7, "plugs": 1}, {"id": 353585, "name": "Gotham Point Apts - Parking", "lat": 40.739489, "lon": -73.961655, "power_kw": 3.7, "plugs": 1}, {"id": 108984, "name": "MPG 1-50 51st Ave", "lat": 40.743049, "lon": -73.959245, "power_kw": 16.0, "plugs": 1}, {"id": 353619, "name": "MPG 1-50 51st Ave - Tesla Destination", "lat": 40.743049, "lon": -73.959245, "power_kw": 3.7, "plugs": 1}, {"id": 246321, "name": "Hunters Point South Crossing", "lat": 40.742397, "lon": -73.959225, "power_kw": 3.7, "plugs": 1}, {"id": 353612, "name": "5-19 Borden Ave - Garage", "lat": 40.741944, "lon": -73.95585, "power_kw": 3.7, "plugs": 1}, {"id": 131483, "name": "One Blue Slip-Greenpoint", "lat": 40.736562, "lon": -73.959195, "power_kw": 10.0, "plugs": 1}, {"id": 353531, "name": "One Blue Slip-Greenpoint - Tesla Destination", "lat": 40.736562, "lon": -73.959195, "power_kw": 3.7, "plugs": 1}, {"id": 353486, "name": "StuyTown 325 Ave C - Garage 3", "lat": 40.7326, "lon": -73.9748, "power_kw": 3.7, "plugs": 1}, {"id": 353498, "name": "StuyTown 420 E 20 - Garage 1", "lat": 40.7338, "lon": -73.9769, "power_kw": 3.7, "plugs": 1}, {"id": 353496, "name": "StuyTown 528 E 20 - Garage 2", "lat": 40.7335, "lon": -73.9767, "power_kw": 3.7, "plugs": 1}, {"id": 467172, "name": "StuyTown 279 Ave C - Garage 4", "lat": 40.7308, "lon": -73.9747, "power_kw": 3.7, "plugs": 1}, {"id": 353460, "name": "StuyTown 251 Ave C - Garage 5", "lat": 40.7294, "lon": -73.9755, "power_kw": 3.7, "plugs": 1}, {"id": 353503, "name": "StuyTown 527 E 14 - Garage 6", "lat": 40.7344, "lon": -73.9794, "power_kw": 3.7, "plugs": 1}, {"id": 353371, "name": "169 Ludlow St - Tesla Destination", "lat": 40.721713, "lon": -73.98778, "power_kw": 3.7, "plugs": 1}, {"id": 105390, "name": "Parkright 169 Ludlow Street", "lat": 40.721713, "lon": -73.987533, "power_kw": 10.0, "plugs": 1}, {"id": 353400, "name": "Enterprise 284 Mott St - Underground garage", "lat": 40.724324, "lon": -73.994201, "power_kw": 3.7, "plugs": 1}, {"id": 81965, "name": "Parkit 10 Wooster St.", "lat": 40.721658, "lon": -74.004402, "power_kw": 8.0, "plugs": 1}, {"id": 48234, "name": "ParkIt - Tesla", "lat": 40.7213314, "lon": -74.0035293, "power_kw": 8.0, "plugs": 1}, {"id": 90274, "name": "City Parking RL Mercer Street", "lat": 40.721437, "lon": -74.001238, "power_kw": 13.0, "plugs": 1}, {"id": 142421, "name": "New York University - Plaza Nursery School", "lat": 40.7273617, "lon": -73.9975331999999, "power_kw": 3.7, "plugs": 1}, {"id": 246297, "name": "NYU NYU # 1", "lat": 40.72808, "lon": -73.99724, "power_kw": 3.7, "plugs": 1}, {"id": 353447, "name": "NYU NYU # 2", "lat": 40.728283, "lon": -73.997251, "power_kw": 3.7, "plugs": 1}, {"id": 82164, "name": "Parkit 221 Thompson Street", "lat": 40.729234, "lon": -73.999013, "power_kw": 8.0, "plugs": 1}, {"id": 28401, "name": "BEAM CHARGING", "lat": 40.730485, "lon": -74.000728, "power_kw": 3.0, "plugs": 1}, {"id": 246306, "name": "Minetta Garage", "lat": 40.73137973, "lon": -74.0007049, "power_kw": 3.7, "plugs": 1}, {"id": 142429, "name": "GMC Parking - Travelers Garage", "lat": 40.7343139648, "lon": -74.001953125, "power_kw": 3.7, "plugs": 1}, {"id": 246309, "name": "Travelers Parking", "lat": 40.73491, "lon": -74.001634, "power_kw": 3.7, "plugs": 1}, {"id": 90710, "name": "Quikpark 173 W 12th Street", "lat": 40.737108, "lon": -74.000358, "power_kw": 16.0, "plugs": 1}, {"id": 100939, "name": "Ipark 107 West 13th Street", "lat": 40.736973, "lon": -73.99787, "power_kw": 6.0, "plugs": 1}, {"id": 353535, "name": "iPark 107 West 13th Street - Tesla Destination", "lat": 40.736973, "lon": -73.99787, "power_kw": 3.7, "plugs": 1}, {"id": 28402, "name": "BEAM CHARGING", "lat": 40.736949, "lon": -73.9977963, "power_kw": 3.0, "plugs": 1}, {"id": 353484, "name": "2 Fifth Ave", "lat": 40.73237, "lon": -73.99678, "power_kw": 3.7, "plugs": 1}, {"id": 67362, "name": "Icon Parking - Tesla", "lat": 40.732296, "lon": -73.9960757, "power_kw": 8.0, "plugs": 1}, {"id": 67363, "name": "Icon Parking - Tesla", "lat": 40.7325223, "lon": -73.995208, "power_kw": 8.0, "plugs": 1}, {"id": 84198, "name": "Standard Parking 20 W 13th Street", "lat": 40.735706, "lon": -73.995058, "power_kw": 16.0, "plugs": 1}, {"id": 82295, "name": "Icon Parking 55 W 14th Street", "lat": 40.737122, "lon": -73.996119, "power_kw": 8.0, "plugs": 1}, {"id": 75879, "name": "Standard Parking - Tesla", "lat": 40.7363576, "lon": -73.9919602, "power_kw": 16.0, "plugs": 1}, {"id": 67364, "name": "GGMC Parking - Tesla", "lat": 40.7349191, "lon": -73.9893665, "power_kw": 8.0, "plugs": 1}, {"id": 353515, "name": "GGMC Parking Union Square Parking Garage - Tesla Destination", "lat": 40.734939, "lon": -73.989409, "power_kw": 3.7, "plugs": 1}, {"id": 81348, "name": "Icon Parking University 10 Parking (entrance on 50 E 10th Street)", "lat": 40.731887, "lon": -73.991906, "power_kw": 8.0, "plugs": 1}, {"id": 226842, "name": "CHHA2 Garages LLC", "lat": 40.733934, "lon": -73.993118, "power_kw": 3.7, "plugs": 1}, {"id": 81917, "name": "GGMC Parking Stewart House Garage (located At 91 E 9th St)", "lat": 40.731257, "lon": -73.992101, "power_kw": 8.0, "plugs": 1}, {"id": 67361, "name": "GGMC Parking - Tesla", "lat": 40.7312576, "lon": -73.9920918, "power_kw": 8.0, "plugs": 1}, {"id": 246304, "name": "Champion Parking 60 E 8th - Tesla Destination", "lat": 40.730487, "lon": -73.993569, "power_kw": 3.7, "plugs": 1}, {"id": 81909, "name": "Parkit 403 Lafayette St.", "lat": 40.728287, "lon": -73.992746, "power_kw": 8.0, "plugs": 1}, {"id": 246296, "name": "The Standard, East Village - Tesla Destination", "lat": 40.727797, "lon": -73.990746, "power_kw": 3.7, "plugs": 1}, {"id": 353463, "name": "Astor Place", "lat": 40.7297, "lon": -73.991565, "power_kw": 3.7, "plugs": 1}, {"id": 28399, "name": "CARCHARGING", "lat": 40.729535, "lon": -73.991398, "power_kw": 3.0, "plugs": 1}, {"id": 246305, "name": "GGMC 91 E 9th Street - Tesla Destination", "lat": 40.730723, "lon": -73.990854, "power_kw": 3.7, "plugs": 1}, {"id": 226839, "name": "LaSalle Parking LLS Shumai LLC (220 E 9th St.)", "lat": 40.729495, "lon": -73.988375, "power_kw": 3.7, "plugs": 1}, {"id": 81822, "name": "Parkit 310 E 11th Street", "lat": 40.730017, "lon": -73.985512, "power_kw": 14.0, "plugs": 1}, {"id": 353464, "name": "Parkit 310 E 11th Street - Tesla Destination", "lat": 40.730017, "lon": -73.985512, "power_kw": 3.7, "plugs": 1}, {"id": 246310, "name": "Champion Parking E 16th Street - Tesla Destination", "lat": 40.735736, "lon": -73.988745, "power_kw": 3.7, "plugs": 1}, {"id": 125178, "name": "Icon Parking 202 E 18th Street", "lat": 40.735496, "lon": -73.985024, "power_kw": 10.0, "plugs": 1}, {"id": 353520, "name": "Icon Parking 202 E 18th Street - Tesla Destination", "lat": 40.735496, "lon": -73.985024, "power_kw": 3.7, "plugs": 1}, {"id": 467187, "name": "32 Gramercy Park - Garage 1st Floor", "lat": 40.736983, "lon": -73.984881, "power_kw": 3.7, "plugs": 1}, {"id": 263049, "name": "Gramercy Plaza  - Parking Garage", "lat": 40.7362174, "lon": -73.98666508, "power_kw": 3.7, "plugs": 1}, {"id": 105378, "name": "Ipark 10 West 15th", "lat": 40.737171, "lon": -73.994331, "power_kw": 8.0, "plugs": 1}, {"id": 353537, "name": "iPark 10 West 15th - Tesla Destination", "lat": 40.737171, "lon": -73.994331, "power_kw": 3.7, "plugs": 1}, {"id": 67367, "name": "Icon Parking - Tesla", "lat": 40.7375941, "lon": -73.9937739, "power_kw": 8.0, "plugs": 1}, {"id": 246320, "name": "4 W 21st St.", "lat": 40.74057, "lon": -73.99147, "power_kw": 3.7, "plugs": 1}, {"id": 81740, "name": "Icon Parking 5 E 22ND Street", "lat": 40.740458, "lon": -73.989037, "power_kw": 8.0, "plugs": 1}, {"id": 82069, "name": "Icon Parking 51 W 22ND", "lat": 40.742059, "lon": -73.992694, "power_kw": 8.0, "plugs": 1}, {"id": 81897, "name": "Ipark Nyc 250 West Parking", "lat": 40.742407, "lon": -73.999351, "power_kw": 8.0, "plugs": 1}, {"id": 90417, "name": "Rapidpark 124 W 20th Street", "lat": 40.741554, "lon": -73.995403, "power_kw": 13.0, "plugs": 1}, {"id": 90585, "name": "Standard Parking 151 W 17th Street", "lat": 40.740243, "lon": -73.997591, "power_kw": 8.0, "plugs": 1}, {"id": 113775, "name": "Icon Parking 101 W 15th", "lat": 40.738371, "lon": -73.99688, "power_kw": 6.0, "plugs": 1}, {"id": 353557, "name": "Icon Parking 101 W 15th - Tesla Destination", "lat": 40.738371, "lon": -73.99688, "power_kw": 3.7, "plugs": 1}, {"id": 263053, "name": "Icon Parking - 111 Eighth Avenue", "lat": 40.741421, "lon": -74.003186, "power_kw": 3.7, "plugs": 1}, {"id": 84258, "name": "Icon Parking 111 8th Ave Parking", "lat": 40.741515, "lon": -74.004608, "power_kw": 17.0, "plugs": 1}, {"id": 353599, "name": "RAB EV Concierge Demo 1", "lat": 40.74097075, "lon": -74.00590053, "power_kw": 3.7, "plugs": 1}, {"id": 142434, "name": "iPark NYC 61 Jane Street - Tesla Destination", "lat": 40.738733, "lon": -74.006009, "power_kw": 3.7, "plugs": 1}, {"id": 84108, "name": "The Standard, High Line", "lat": 40.740939, "lon": -74.00824, "power_kw": 10.0, "plugs": 1}, {"id": 142442, "name": "The Caledonia", "lat": 40.743832, "lon": -74.006578, "power_kw": 3.0, "plugs": 1}, {"id": 353627, "name": "The Caledonia", "lat": 40.743832, "lon": -74.006578, "power_kw": 3.7, "plugs": 1}, {"id": 353549, "name": "Superior Ink", "lat": 40.737537, "lon": -74.00983, "power_kw": 3.7, "plugs": 1}, {"id": 28404, "name": "CARCHARGING", "lat": 40.73738, "lon": -74.0093738, "power_kw": 3.0, "plugs": 1}, {"id": 71526, "name": "Parkright - Tesla", "lat": 40.735158, "lon": -74.007276, "power_kw": 6.0, "plugs": 1}, {"id": 85117, "name": "Apple Parking 332 W 11th Street", "lat": 40.735597, "lon": -74.007693, "power_kw": 11.0, "plugs": 1}, {"id": 246308, "name": "Parkright 738 Greenwich Street - Tesla Destination", "lat": 40.734412, "lon": -74.007184, "power_kw": 3.7, "plugs": 1}, {"id": 353502, "name": "140 Charles St - Garage", "lat": 40.734018, "lon": -74.007895, "power_kw": 3.7, "plugs": 1}, {"id": 95532, "name": "Icon Parking 150 Charles Street", "lat": 40.734006, "lon": -74.009079, "power_kw": 8.0, "plugs": 1}, {"id": 353500, "name": "Icon Parking 150 Charles Street - Tesla Destination", "lat": 40.734006, "lon": -74.009079, "power_kw": 3.7, "plugs": 1}, {"id": 28400, "name": "FedEx", "lat": 40.7303419, "lon": -74.0082654, "power_kw": 3.7, "plugs": 1}, {"id": 246301, "name": "Parkit 575 Washington - Tesla Destination", "lat": 40.729364, "lon": -74.008513, "power_kw": 3.7, "plugs": 1}, {"id": 353454, "name": "Icon Parking - Hudson", "lat": 40.728704, "lon": -74.00765, "power_kw": 3.7, "plugs": 1}, {"id": 28398, "name": "BEAM CHARGING", "lat": 40.7284126, "lon": -74.0073318, "power_kw": 3.0, "plugs": 2}, {"id": 67360, "name": "Quik Park - Tesla", "lat": 40.7237272, "lon": -74.0109856, "power_kw": 8.0, "plugs": 1}, {"id": 67378, "name": "Parkright - Tesla", "lat": 40.7620919, "lon": -73.9997459, "power_kw": 8.0, "plugs": 1}, {"id": 353889, "name": "Sky Apts - Garage 1st Floor", "lat": 40.761949, "lon": -73.99888, "power_kw": 3.7, "plugs": 1}, {"id": 67376, "name": "Quik Park - Tesla", "lat": 40.7607168, "lon": -73.9988815, "power_kw": 8.0, "plugs": 1}, {"id": 353875, "name": "555 W 42nd St", "lat": 40.76087, "lon": -73.99774, "power_kw": 3.7, "plugs": 1}, {"id": 353827, "name": "MPG Parking", "lat": 40.758967, "lon": -73.995189, "power_kw": 3.7, "plugs": 1}, {"id": 28423, "name": "CARCHARGING", "lat": 40.759041, "lon": -73.994972, "power_kw": 3.0, "plugs": 2}, {"id": 226922, "name": "Gotham Parking", "lat": 40.762307, "lon": -73.996615, "power_kw": 3.7, "plugs": 1}, {"id": 353895, "name": "550 W. 45th St.", "lat": 40.7624, "lon": -73.99635, "power_kw": 3.7, "plugs": 1}, {"id": 246376, "name": "Verizon - Manhattan", "lat": 40.764495, "lon": -73.996651, "power_kw": 3.7, "plugs": 1}, {"id": 246360, "name": "Manhattan Plaza", "lat": 40.759223, "lon": -73.992703, "power_kw": 3.7, "plugs": 1}, {"id": 353822, "name": "Gravity Charging Center", "lat": 40.75878, "lon": -73.99293, "power_kw": 50.0, "plugs": 2}, {"id": 81687, "name": "GGMC Parking 350 W 43RD Street Garage", "lat": 40.758586, "lon": -73.991341, "power_kw": 8.0, "plugs": 1}, {"id": 142450, "name": "Port Authority Bus Terminal", "lat": 40.756892, "lon": -73.991771, "power_kw": 3.7, "plugs": 1}, {"id": 109242, "name": "Glenwood Belmont Parking", "lat": 40.760098, "lon": -73.988828, "power_kw": 8.0, "plugs": 1}, {"id": 353856, "name": "Glenwood Belmont Parking - Tesla Destination", "lat": 40.760098, "lon": -73.988828, "power_kw": 3.7, "plugs": 1}, {"id": 81807, "name": "Quik Park 1133 Garage LLC", "lat": 40.755856, "lon": -73.984313, "power_kw": 16.0, "plugs": 1}, {"id": 246355, "name": "DOCK STATION 10", "lat": 40.757839, "lon": -73.984391, "power_kw": 3.7, "plugs": 1}, {"id": 82066, "name": "Quik Park 285 W 50th Street LLC", "lat": 40.762411, "lon": -73.984495, "power_kw": 8.0, "plugs": 1}, {"id": 28425, "name": "CARCHARGING", "lat": 40.761376, "lon": -73.985273, "power_kw": 3.0, "plugs": 1}, {"id": 353879, "name": "CARCHARGING GMC 225 W 49 #1", "lat": 40.761376, "lon": -73.985273, "power_kw": 3.7, "plugs": 1}, {"id": 353883, "name": "225 W 49th St", "lat": 40.76154, "lon": -73.98518, "power_kw": 3.7, "plugs": 1}, {"id": 113993, "name": "Icon Parking 235 W 48th", "lat": 40.76073, "lon": -73.985995, "power_kw": 6.0, "plugs": 1}, {"id": 353871, "name": "Icon Parking 235 W 48th - Tesla Destination", "lat": 40.76073, "lon": -73.985995, "power_kw": 3.7, "plugs": 1}, {"id": 3465, "name": "Car Charging Incorporated", "lat": 40.76324463, "lon": -73.98864746, "power_kw": 0.0, "plugs": 1}, {"id": 3607, "name": "Car Charging Incorporated", "lat": 40.76324463, "lon": -73.98864746, "power_kw": 0.0, "plugs": 1}, {"id": 353913, "name": "Icon Mercury Parking", "lat": 40.76324463, "lon": -73.98864745, "power_kw": 3.7, "plugs": 1}, {"id": 353905, "name": "311 W 50th St.", "lat": 40.76293, "lon": -73.98729, "power_kw": 3.7, "plugs": 1}, {"id": 353931, "name": "301 W 53rd St.", "lat": 40.76458, "lon": -73.98504, "power_kw": 3.7, "plugs": 1}, {"id": 353919, "name": "900 8th Ave - Garage 1st and 2nd Floor", "lat": 40.76416, "lon": -73.984372, "power_kw": 3.7, "plugs": 1}, {"id": 81772, "name": "Champion Parking W 57th Street", "lat": 40.76696, "lon": -73.983569, "power_kw": 8.0, "plugs": 1}, {"id": 90695, "name": "Rapidpark 411 W 55th Street", "lat": 40.766971, "lon": -73.987441, "power_kw": 16.0, "plugs": 1}, {"id": 92510, "name": "Icon Parking Independent", "lat": 40.766708, "lon": -73.955483, "power_kw": 16.0, "plugs": 1}, {"id": 353882, "name": "1175 York Ave - 1175 York Garage", "lat": 40.761537, "lon": -73.957979, "power_kw": 3.7, "plugs": 1}, {"id": 226928, "name": "498 E 67th St", "lat": 40.763723, "lon": -73.956354, "power_kw": 3.7, "plugs": 1}, {"id": 246381, "name": "Weill Cornell Medical", "lat": 40.765313, "lon": -73.955553, "power_kw": 3.7, "plugs": 1}, {"id": 353947, "name": "Weill Cornell Medical", "lat": 40.765378, "lon": -73.955054, "power_kw": 3.7, "plugs": 1}, {"id": 95515, "name": "Icon Parking 515 E 72ND Street", "lat": 40.766545, "lon": -73.95292, "power_kw": 8.0, "plugs": 1}, {"id": 67382, "name": "Icon Parking - Tesla", "lat": 40.7667035, "lon": -73.9529622, "power_kw": 8.0, "plugs": 1}, {"id": 113905, "name": "Icon Parking 524 East 73RD", "lat": 40.766736, "lon": -73.951891, "power_kw": 8.0, "plugs": 1}, {"id": 353961, "name": "Icon Parking 524 East 73rd - Tesla Destination", "lat": 40.766736, "lon": -73.951891, "power_kw": 3.7, "plugs": 1}, {"id": 226932, "name": "STATION 4TH FL MOTORGATE 3", "lat": 40.764464, "lon": -73.946924, "power_kw": 3.7, "plugs": 1}, {"id": 353924, "name": "STATION 4TH FL MOTORGATE #1", "lat": 40.764429, "lon": -73.946793, "power_kw": 3.7, "plugs": 1}, {"id": 226929, "name": "STATION 4TH FL MOTORGATE #2", "lat": 40.764208, "lon": -73.947198, "power_kw": 3.7, "plugs": 1}, {"id": 282579, "name": "Ravel Hotel", "lat": 40.75402, "lon": -73.9493, "power_kw": 3.7, "plugs": 1}, {"id": 353873, "name": "Rockefeller Univ - Garage Ground Floor", "lat": 40.760823, "lon": -73.957536, "power_kw": 3.7, "plugs": 1}, {"id": 353773, "name": "TATABROOKFIELD #7", "lat": 40.755314, "lon": -73.955605, "power_kw": 3.7, "plugs": 1}, {"id": 353768, "name": "TATABROOKFIELD GATEWAY #1", "lat": 40.755024, "lon": -73.955605, "power_kw": 3.7, "plugs": 1}, {"id": 353770, "name": "TATABROOKFIELD #2", "lat": 40.755077, "lon": -73.955605, "power_kw": 3.7, "plugs": 1}, {"id": 246349, "name": "Prestige Parking Corp", "lat": 40.7565187377, "lon": -73.9610743999, "power_kw": 3.7, "plugs": 1}, {"id": 246350, "name": "435 E. 55th St.", "lat": 40.75657, "lon": -73.96226, "power_kw": 3.7, "plugs": 1}, {"id": 246344, "name": "EastSide Parking LLC.", "lat": 40.755627, "lon": -73.961468, "power_kw": 3.7, "plugs": 1}, {"id": 113869, "name": "GMC Parking 420 E 53RD", "lat": 40.755289, "lon": -73.963804, "power_kw": 6.0, "plugs": 1}, {"id": 353772, "name": "GMC Parking 420 E 53rd - Tesla Destination", "lat": 40.755289, "lon": -73.963804, "power_kw": 3.7, "plugs": 1}, {"id": 97779, "name": "Icon Parking Sutton 53", "lat": 40.755363, "lon": -73.963841, "power_kw": 8.0, "plugs": 1}, {"id": 353775, "name": "Icon Parking Sutton 53 - Tesla Destination", "lat": 40.755363, "lon": -73.963841, "power_kw": 3.7, "plugs": 1}, {"id": 108967, "name": "Sutton Place North Garage", "lat": 40.75552, "lon": -73.962734, "power_kw": 16.0, "plugs": 1}, {"id": 353779, "name": "Sutton Place North Garage - Tesla Destination", "lat": 40.75552, "lon": -73.962734, "power_kw": 3.7, "plugs": 1}, {"id": 246341, "name": "Beekman Parking", "lat": 40.754022, "lon": -73.965166, "power_kw": 3.7, "plugs": 1}, {"id": 353744, "name": "449 East 49th Street", "lat": 40.75267, "lon": -73.96482, "power_kw": 3.7, "plugs": 1}, {"id": 246339, "name": "ABM Parking 866 UN Plaza - Tesla Destination", "lat": 40.752641, "lon": -73.965187, "power_kw": 3.7, "plugs": 1}, {"id": 353767, "name": "351 E 51st St - Garage 1st Floor", "lat": 40.75489, "lon": -73.966134, "power_kw": 3.7, "plugs": 1}, {"id": 81481, "name": "Icon Parking E 48th Street", "lat": 40.753079, "lon": -73.968032, "power_kw": 8.0, "plugs": 1}, {"id": 246352, "name": "The Veneto", "lat": 40.756766, "lon": -73.967481, "power_kw": 3.7, "plugs": 1}, {"id": 82029, "name": "GGMC Parking Connaught", "lat": 40.757146, "lon": -73.966135, "power_kw": 14.0, "plugs": 1}, {"id": 105371, "name": "MPG 201 E 56th", "lat": 40.759437, "lon": -73.96767, "power_kw": 10.0, "plugs": 1}, {"id": 353841, "name": "MPG 201 E 56th - Tesla Destination", "lat": 40.759437, "lon": -73.96767, "power_kw": 3.7, "plugs": 1}, {"id": 353839, "name": "RUDIN 136E55TH EV 3", "lat": 40.759363, "lon": -73.969787, "power_kw": 3.7, "plugs": 1}, {"id": 353867, "name": "L&L HOLDING CO. NUGGET L2", "lat": 40.760403, "lon": -73.97105, "power_kw": 3.7, "plugs": 1}, {"id": 353863, "name": "L&L HOLDING CO. STATION 3", "lat": 40.760378, "lon": -73.971062, "power_kw": 3.7, "plugs": 1}, {"id": 353858, "name": "131 E 55th St - Garage Lower Level", "lat": 40.760139, "lon": -73.970051, "power_kw": 3.7, "plugs": 1}, {"id": 353836, "name": "919 Third Avenue", "lat": 40.759299, "lon": -73.968603, "power_kw": 3.7, "plugs": 1}, {"id": 82252, "name": "Icon Parking 150 E 58th Street", "lat": 40.76139, "lon": -73.968269, "power_kw": 8.0, "plugs": 1}, {"id": 67375, "name": "Icon Parking - Tesla", "lat": 40.7602859, "lon": -73.9640752, "power_kw": 8.0, "plugs": 1}, {"id": 81948, "name": "Icon Parking 300 E 59th Street", "lat": 40.760462, "lon": -73.964086, "power_kw": 8.0, "plugs": 1}, {"id": 246359, "name": "Icon Parking 301 E 57 Street - Tesla Destination", "lat": 40.759127, "lon": -73.964684, "power_kw": 3.7, "plugs": 1}, {"id": 28422, "name": "GLENWOOD MGMT", "lat": 40.7581527, "lon": -73.9653023, "power_kw": 3.0, "plugs": 2}, {"id": 246354, "name": "GMC 400 East 56th Street", "lat": 40.757223, "lon": -73.963011, "power_kw": 3.7, "plugs": 1}, {"id": 71528, "name": "iPark - Tesla", "lat": 40.758438, "lon": -73.9609158, "power_kw": 8.0, "plugs": 1}, {"id": 90196, "name": "City Parking E 61st Street", "lat": 40.760289, "lon": -73.959501, "power_kw": 13.0, "plugs": 1}, {"id": 353907, "name": "St Tropez Building - Garage", "lat": 40.7630146, "lon": -73.9601267, "power_kw": 3.7, "plugs": 1}, {"id": 246372, "name": "New Systems", "lat": 40.7632, "lon": -73.960185, "power_kw": 3.7, "plugs": 1}, {"id": 82118, "name": "Parkit 301 E 64th", "lat": 40.763488, "lon": -73.961323, "power_kw": 8.0, "plugs": 1}, {"id": 81373, "name": "Ipark 245 East 63RD Street", "lat": 40.76332, "lon": -73.962938, "power_kw": 16.0, "plugs": 1}, {"id": 81377, "name": "Icon Parking 205 E 63RD St", "lat": 40.763981, "lon": -73.964368, "power_kw": 16.0, "plugs": 1}, {"id": 28427, "name": "BEAM CHARGING", "lat": 40.7639046, "lon": -73.9644852, "power_kw": 3.0, "plugs": 2}, {"id": 92552, "name": "Icon Parking 200 E 65th Street", "lat": 40.765108, "lon": -73.963389, "power_kw": 16.0, "plugs": 1}, {"id": 100947, "name": "Icon Parking 279 East 65th Street", "lat": 40.764552, "lon": -73.962034, "power_kw": 8.0, "plugs": 1}, {"id": 353930, "name": "Icon Parking 279 East 65th Street - Tesla Destination", "lat": 40.764552, "lon": -73.962034, "power_kw": 3.7, "plugs": 1}, {"id": 353945, "name": "265 E 66th St - Garage", "lat": 40.76536, "lon": -73.96128, "power_kw": 3.7, "plugs": 1}, {"id": 246379, "name": "92746 CHARGEPOINT 1", "lat": 40.764935, "lon": -73.96063, "power_kw": 3.7, "plugs": 1}, {"id": 109299, "name": "Icon Parking 360 E 65th", "lat": 40.766853, "lon": -73.967711, "power_kw": 6.0, "plugs": 1}, {"id": 353963, "name": "Icon Parking 360 E 65th - Tesla Destination", "lat": 40.766853, "lon": -73.967711, "power_kw": 3.7, "plugs": 1}, {"id": 100811, "name": "Ipark 112 E 65th Street", "lat": 40.766495, "lon": -73.9667, "power_kw": 8.0, "plugs": 1}, {"id": 353956, "name": "iPark 112 E 65th Street - Tesla Destination", "lat": 40.766495, "lon": -73.9667, "power_kw": 3.7, "plugs": 1}, {"id": 172947, "name": "GMC Parking Narragansett", "lat": 40.7647624, "lon": -73.9670869, "power_kw": 16.0, "plugs": 1}, {"id": 353911, "name": "Enterprise 61 - Garage", "lat": 40.763211, "lon": -73.965752, "power_kw": 3.7, "plugs": 1}, {"id": 81854, "name": "Icon Parking 203 E 61 Street", "lat": 40.762678, "lon": -73.965447, "power_kw": 8.0, "plugs": 1}, {"id": 353910, "name": "150 E 61st St.", "lat": 40.76318, "lon": -73.96684, "power_kw": 3.7, "plugs": 1}, {"id": 84444, "name": "Abm Parking 750 Lexington Ave LLC", "lat": 40.76306, "lon": -73.968409, "power_kw": 12.0, "plugs": 1}, {"id": 74554, "name": "Loews Regency - Tesla", "lat": 40.764497, "lon": -73.9691467, "power_kw": 16.0, "plugs": 1}, {"id": 81744, "name": "Icon Parking 35-39 East 61st Street", "lat": 40.764617, "lon": -73.969764, "power_kw": 16.0, "plugs": 1}, {"id": 246374, "name": "Quik Park West 57 LLC - Tesla Destination", "lat": 40.764259, "lon": -73.974972, "power_kw": 3.7, "plugs": 1}, {"id": 87204, "name": "58 West 58th Street", "lat": 40.76451, "lon": -73.976254, "power_kw": 8.0, "plugs": 1}, {"id": 353937, "name": "Standard Parking 58 W 58th Street - Tesla Destination", "lat": 40.76476, "lon": -73.976153, "power_kw": 3.7, "plugs": 1}, {"id": 353934, "name": "Central Parking - 58 West 58th St", "lat": 40.764655, "lon": -73.9761, "power_kw": 3.7, "plugs": 1}, {"id": 353968, "name": "210 Central Park", "lat": 40.767, "lon": -73.97989, "power_kw": 3.7, "plugs": 1}, {"id": 142460, "name": "GMC - 200 CENTRAL PARK SOUTH- STATION 1", "lat": 40.7667193, "lon": -73.9795827, "power_kw": 3.7, "plugs": 1}, {"id": 353960, "name": "GMC Parking Garage - 200 Central", "lat": 40.766719, "lon": -73.979533, "power_kw": 3.7, "plugs": 1}, {"id": 246377, "name": "I Park - 145 W 56th St", "lat": 40.764609, "lon": -73.979517, "power_kw": 3.7, "plugs": 1}, {"id": 81845, "name": "Quik Park Broadway Garage LLC", "lat": 40.765844, "lon": -73.982481, "power_kw": 8.0, "plugs": 1}, {"id": 82197, "name": "Champion Parking 230 W 55th Street", "lat": 40.764748, "lon": -73.982676, "power_kw": 8.0, "plugs": 1}, {"id": 246375, "name": "Residence Inn New York Manhattan - Tesla Destination", "lat": 40.764261, "lon": -73.982974, "power_kw": 3.7, "plugs": 1}, {"id": 67380, "name": "Champion Parking - Tesla", "lat": 40.7629863, "lon": -73.9814456, "power_kw": 8.0, "plugs": 1}, {"id": 81830, "name": "Champion Parking W 53RD Street", "lat": 40.763279, "lon": -73.98086, "power_kw": 8.0, "plugs": 1}, {"id": 353909, "name": "133 W 54th St.", "lat": 40.76316, "lon": -73.98008, "power_kw": 3.7, "plugs": 1}, {"id": 81681, "name": "Icon Parking 810 Seventh Ave (entrance on 207 W 52ND St)", "lat": 40.762568, "lon": -73.982718, "power_kw": 8.0, "plugs": 1}, {"id": 353872, "name": "SP+MASTER STATION 2", "lat": 40.760734, "lon": -73.982296, "power_kw": 3.7, "plugs": 1}, {"id": 246370, "name": "DSL Marketing and Energy Icon Parking", "lat": 40.761698, "lon": -73.978338, "power_kw": 3.7, "plugs": 1}, {"id": 353903, "name": "65 W 55th St.", "lat": 40.76282, "lon": -73.97725, "power_kw": 3.7, "plugs": 1}, {"id": 67379, "name": "Icon Parking - Tesla", "lat": 40.762517, "lon": -73.9777614, "power_kw": 8.0, "plugs": 1}, {"id": 92496, "name": "New York Hilton Midtown", "lat": 40.762234, "lon": -73.979036, "power_kw": 16.0, "plugs": 1}, {"id": 97957, "name": "1345 Parking Garage", "lat": 40.76351, "lon": -73.979364, "power_kw": 10.0, "plugs": 1}, {"id": 353916, "name": "1345 Parking Garage - Tesla Destination", "lat": 40.76351, "lon": -73.979364, "power_kw": 3.7, "plugs": 1}, {"id": 353914, "name": "51 W 56th St - Garage", "lat": 40.76339, "lon": -73.975838, "power_kw": 3.7, "plugs": 1}, {"id": 67377, "name": "The Peninsula Hotel - Tesla", "lat": 40.7616194, "lon": -73.9754144, "power_kw": 8.0, "plugs": 1}, {"id": 246368, "name": "The St. Regis", "lat": 40.7613979, "lon": -73.9746128, "power_kw": 3.7, "plugs": 1}, {"id": 48239, "name": "Quik Park - Tesla", "lat": 40.7636677, "lon": -73.9748016, "power_kw": 16.0, "plugs": 1}, {"id": 269733, "name": "OAC 550 OWNER STATION 1", "lat": 40.761272, "lon": -73.97342, "power_kw": 3.7, "plugs": 1}, {"id": 269734, "name": "OAC 550 OWNER STATION 15 & 16", "lat": 40.761646, "lon": -73.97306, "power_kw": 3.7, "plugs": 1}, {"id": 84459, "name": "Abm Parking 13 East 54th Street LLC", "lat": 40.760648, "lon": -73.974193, "power_kw": 12.0, "plugs": 1}, {"id": 16572, "name": "BEAM CHARGING", "lat": 40.758462, "lon": -73.972211, "power_kw": 3.0, "plugs": 2}, {"id": 48238, "name": "Waldorf Astoria - Tesla", "lat": 40.75652, "lon": -73.9734057, "power_kw": 16.0, "plugs": 1}, {"id": 246351, "name": "Waldorf Astoria New York - Tesla Destination", "lat": 40.756722, "lon": -73.97406, "power_kw": 3.7, "plugs": 1}, {"id": 246343, "name": "277 Park Avenue", "lat": 40.75519, "lon": -73.974142, "power_kw": 3.7, "plugs": 1}, {"id": 95200, "name": "Roger Smith Hotel", "lat": 40.754709, "lon": -73.973391, "power_kw": 16.0, "plugs": 1}, {"id": 353766, "name": "Roger Smith Hotel - Tesla Destination", "lat": 40.754709, "lon": -73.973391, "power_kw": 3.7, "plugs": 1}, {"id": 142454, "name": "520806-Rockefeller Center", "lat": 40.758305, "lon": -73.980311, "power_kw": 3.7, "plugs": 1}, {"id": 142452, "name": "1211 Avenue of the Americas", "lat": 40.75867, "lon": -73.982384, "power_kw": 3.0, "plugs": 1}, {"id": 4328, "name": "EDISONPARKFAST", "lat": 40.7558587, "lon": -73.9824966, "power_kw": 40.0, "plugs": 3}, {"id": 269728, "name": "DOCK EV 9", "lat": 40.750666, "lon": -73.979263, "power_kw": 3.7, "plugs": 1}, {"id": 105396, "name": "Rapidpark 99 Park Ave", "lat": 40.750013, "lon": -73.978525, "power_kw": 10.0, "plugs": 1}, {"id": 353718, "name": "Rapidpark 99 Park Ave - Tesla Destination", "lat": 40.750013, "lon": -73.978525, "power_kw": 3.7, "plugs": 1}, {"id": 142448, "name": "Company", "lat": 40.7537571, "lon": -73.9783437999999, "power_kw": 3.7, "plugs": 1}, {"id": 103292, "name": "New York, NY - E 47th Street (Valet & Pay to Park)", "lat": 40.753356, "lon": -73.971685, "power_kw": 72.0, "plugs": 1}, {"id": 353755, "name": "E 47th Street - Tesla Supercharger", "lat": 40.753356, "lon": -73.971685, "power_kw": 50.0, "plugs": 1}, {"id": 246338, "name": "iPark NYC 246 E 45 Street - Tesla Destination", "lat": 40.751847, "lon": -73.971348, "power_kw": 3.7, "plugs": 1}, {"id": 67373, "name": "GGMC Parking - Tesla", "lat": 40.7517016, "lon": -73.9726002, "power_kw": 8.0, "plugs": 1}, {"id": 81796, "name": "GGMC Parking Seven Eleven (located At 217 E 44th St)", "lat": 40.751867, "lon": -73.972873, "power_kw": 8.0, "plugs": 1}, {"id": 81365, "name": "Icon Parking 560 Third Ave", "lat": 40.747962, "lon": -73.976569, "power_kw": 8.0, "plugs": 1}, {"id": 246332, "name": "Glenwood Management - Paramount Garage", "lat": 40.74793, "lon": -73.974556, "power_kw": 3.7, "plugs": 1}, {"id": 246333, "name": "iPark - Enterprise Parking", "lat": 40.748359, "lon": -73.972213, "power_kw": 3.7, "plugs": 1}, {"id": 82135, "name": "Ipark Nyc 333 E 38th Nyu", "lat": 40.746565, "lon": -73.971591, "power_kw": 8.0, "plugs": 1}, {"id": 81551, "name": "Icon Parking 330 E 39th Street", "lat": 40.746851, "lon": -73.972901, "power_kw": 8.0, "plugs": 1}, {"id": 246327, "name": "First Avenue Parking- 630 1st Avenue NY, NY 10016", "lat": 40.745096, "lon": -73.971921, "power_kw": 3.7, "plugs": 1}, {"id": 353639, "name": "300 East 34th", "lat": 40.74437, "lon": -73.97561, "power_kw": 3.7, "plugs": 1}, {"id": 226880, "name": "Tunnel Garage", "lat": 40.74508, "lon": -73.97604, "power_kw": 3.7, "plugs": 1}, {"id": 90324, "name": "Rapidpark 148 E 33RD Street", "lat": 40.745432, "lon": -73.97956, "power_kw": 16.0, "plugs": 1}, {"id": 90249, "name": "City Parking Garment One Garage", "lat": 40.746022, "lon": -73.978693, "power_kw": 13.0, "plugs": 1}, {"id": 353702, "name": "Nap York - Tesla Destination", "lat": 40.748719, "lon": -73.977615, "power_kw": 3.7, "plugs": 1}, {"id": 90318, "name": "Icon 9-11 Park Ave", "lat": 40.747299, "lon": -73.981039, "power_kw": 16.0, "plugs": 1}, {"id": 81759, "name": "Icon Parking 200 E 32ND Street", "lat": 40.744916, "lon": -73.980228, "power_kw": 16.0, "plugs": 1}, {"id": 74553, "name": "COHEN BROTHERS", "lat": 40.7453718, "lon": -73.9821073, "power_kw": 3.0, "plugs": 1}, {"id": 92470, "name": "Abm Parking 475 Park Ave South LLC", "lat": 40.745603, "lon": -73.98185, "power_kw": 8.0, "plugs": 1}, {"id": 246323, "name": "142 E 31st St.", "lat": 40.74415, "lon": -73.98046, "power_kw": 3.7, "plugs": 1}, {"id": 246325, "name": "Red Ball Garage", "lat": 40.744731, "lon": -73.981125, "power_kw": 3.7, "plugs": 1}, {"id": 159694, "name": "United Nations", "lat": 40.748965, "lon": -73.969649, "power_kw": 3.7, "plugs": 1}, {"id": 84935, "name": "Ipark 386 E 48th Street", "lat": 40.7529, "lon": -73.967723, "power_kw": 8.0, "plugs": 1}, {"id": 89632, "name": "iPark - Tesla", "lat": 40.751919, "lon": -73.965135, "power_kw": 8.0, "plugs": 1}, {"id": 125155, "name": "4545 Center BLVD-TF Cornerstone Lic", "lat": 40.747676, "lon": -73.956012, "power_kw": 10.0, "plugs": 1}, {"id": 353686, "name": "4545 Center Blvd-TF Cornerstone LIC - Tesla Destination", "lat": 40.747676, "lon": -73.956012, "power_kw": 3.7, "plugs": 1}, {"id": 353645, "name": "430809  Avalon Riverview North", "lat": 40.7449626, "lon": -73.9568845, "power_kw": 3.7, "plugs": 1}, {"id": 277172, "name": "CITYLIGHTS 5TH FLOOR 1", "lat": 40.744127, "lon": -73.95684, "power_kw": 3.7, "plugs": 1}, {"id": 277173, "name": "CITYLIGHTS 5TH FLOOR 2", "lat": 40.744152, "lon": -73.956666, "power_kw": 3.7, "plugs": 1}, {"id": 294570, "name": "Fifth Street Lofts", "lat": 40.74481291896706, "lon": -73.95564723245457, "power_kw": 3.7, "plugs": 1}, {"id": 85040, "name": "Little Man Parking (queens West)", "lat": 40.745627, "lon": -73.955638, "power_kw": 16.0, "plugs": 1}, {"id": 467190, "name": "Solarium Condominium - Indoor", "lat": 40.745825, "lon": -73.953794, "power_kw": 3.7, "plugs": 1}, {"id": 81653, "name": "Icon Parking 40 W 26th Street", "lat": 40.744467, "lon": -73.990662, "power_kw": 8.0, "plugs": 1}, {"id": 90680, "name": "Standard Parking 800 6th Ave", "lat": 40.745842, "lon": -73.990103, "power_kw": 16.0, "plugs": 1}, {"id": 90381, "name": "Rapidpark 10 E 30th Street", "lat": 40.74556, "lon": -73.985539, "power_kw": 16.0, "plugs": 1}, {"id": 67369, "name": "Parkright - Tesla", "lat": 40.7447125, "lon": -73.9844689, "power_kw": 8.0, "plugs": 1}, {"id": 246324, "name": "Parkright 39 E 29th Street - Tesla Destination", "lat": 40.744244, "lon": -73.984116, "power_kw": 3.7, "plugs": 1}, {"id": 81633, "name": "GGMC Parking 8 E 33RD St Garage (located At 325 Fifth Ave)", "lat": 40.747478, "lon": -73.98504, "power_kw": 8.0, "plugs": 1}, {"id": 263055, "name": "Central Parking - Tower 31", "lat": 40.74709, "lon": -73.98667, "power_kw": 3.7, "plugs": 1}, {"id": 67372, "name": "Icon Parking - Tesla", "lat": 40.7512913, "lon": -73.9862416, "power_kw": 8.0, "plugs": 1}, {"id": 353785, "name": "511 9th Ave.", "lat": 40.75628, "lon": -73.99461, "power_kw": 3.7, "plugs": 1}, {"id": 28416, "name": "CARCHARGING", "lat": 40.75147, "lon": -73.9927795, "power_kw": 3.0, "plugs": 2}, {"id": 82064, "name": "Quik Park Garden Lots LLC", "lat": 40.749073, "lon": -73.990032, "power_kw": 8.0, "plugs": 1}, {"id": 246358, "name": "Eventi Hotel", "lat": 40.747093, "lon": -73.99017, "power_kw": 3.7, "plugs": 1}, {"id": 92522, "name": "Iron State 221 W 29th Street", "lat": 40.748417, "lon": -73.994121, "power_kw": 16.0, "plugs": 1}, {"id": 3449, "name": "Edison ParkFast", "lat": 40.754509, "lon": -73.995944, "power_kw": 0.0, "plugs": 1}, {"id": 3591, "name": "Edison ParkFast", "lat": 40.754509, "lon": -73.995944, "power_kw": 0.0, "plugs": 1}, {"id": 3010, "name": "EDISONPARKFAST", "lat": 40.7546106, "lon": -73.9959708, "power_kw": 3.0, "plugs": 3}, {"id": 353800, "name": "Enterprise 38 - Garage", "lat": 40.757123, "lon": -73.99832, "power_kw": 3.7, "plugs": 1}, {"id": 92530, "name": "Ipark Eleventh Avenue Garage Corp.", "lat": 40.753049, "lon": -74.003333, "power_kw": 16.0, "plugs": 1}, {"id": 105417, "name": "MPG 530 West 30th", "lat": 40.75277, "lon": -74.00265, "power_kw": 10.0, "plugs": 1}, {"id": 353746, "name": "MPG 530 West 30th - Tesla Destination", "lat": 40.75277, "lon": -74.00265, "power_kw": 3.7, "plugs": 1}, {"id": 105397, "name": "MPG 500 West 30th", "lat": 40.752205, "lon": -74.001493, "power_kw": 10.0, "plugs": 1}, {"id": 353737, "name": "MPG 500 West 30th - Tesla Destination", "lat": 40.752205, "lon": -74.001493, "power_kw": 3.7, "plugs": 1}, {"id": 353742, "name": "10 Hudson Yards - Tesla Destination", "lat": 40.752656, "lon": -74.001074, "power_kw": 3.7, "plugs": 1}, {"id": 246336, "name": "GGMC Parking - 550 W 25th - Tesla Destination", "lat": 40.74979, "lon": -74.005335, "power_kw": 3.7, "plugs": 1}, {"id": 246337, "name": "MANHATTAN VMF", "lat": 40.750397, "lon": -74.006467, "power_kw": 3.7, "plugs": 1}, {"id": 82245, "name": "Ipark Nyc 555 West Garage Corp.", "lat": 40.749296, "lon": -74.006017, "power_kw": 8.0, "plugs": 1}, {"id": 67370, "name": "iPark - Tesla", "lat": 40.7485092, "lon": -74.006063, "power_kw": 8.0, "plugs": 1}, {"id": 353644, "name": "444 W 19th St - Basement", "lat": 40.744837, "lon": -74.004912, "power_kw": 3.7, "plugs": 1}, {"id": 48236, "name": "Quik Park - Tesla", "lat": 40.7469089, "lon": -74.0022853, "power_kw": 16.0, "plugs": 1}, {"id": 294574, "name": "COM1-1 COM1-2", "lat": 40.747434, "lon": -74.000085, "power_kw": 50.0, "plugs": 2}, {"id": 294575, "name": "COM1-1 COM1-1", "lat": 40.747486, "lon": -74.000069, "power_kw": 50.0, "plugs": 2}, {"id": 95479, "name": "Ipark 200 West Garage Corp.", "lat": 40.746304, "lon": -73.995064, "power_kw": 8.0, "plugs": 1}, {"id": 353664, "name": "iPark 200 West Garage Corp. - Tesla Destination", "lat": 40.746304, "lon": -73.995064, "power_kw": 3.7, "plugs": 1}, {"id": 353653, "name": "252 7th Ave Chelsea Garage", "lat": 40.7454, "lon": -73.99542, "power_kw": 3.7, "plugs": 1}, {"id": 246331, "name": "551W21 SR Capital - Tesla Destination", "lat": 40.747437, "lon": -74.007111, "power_kw": 3.7, "plugs": 1}, {"id": 269729, "name": "NYC FLEET DSNY_MBS2-DCFC1", "lat": 40.751302, "lon": -74.007096, "power_kw": 50.0, "plugs": 2}, {"id": 81645, "name": "Icon Parking 330 W 58th Street", "lat": 40.767879, "lon": -73.983656, "power_kw": 8.0, "plugs": 1}, {"id": 246392, "name": "Coliseum Park Apts - Central Parking", "lat": 40.768432, "lon": -73.984033, "power_kw": 3.7, "plugs": 1}, {"id": 246393, "name": "Manhattan Parking Group", "lat": 40.768721, "lon": -73.983487, "power_kw": 3.7, "plugs": 1}, {"id": 28432, "name": "CARCHARGING", "lat": 40.768257, "lon": -73.989087, "power_kw": 3.0, "plugs": 2}, {"id": 353995, "name": "The Westport", "lat": 40.768211, "lon": -73.989479, "power_kw": 3.7, "plugs": 1}, {"id": 226945, "name": "MB MANHATTAN MB MANHATTANDC1", "lat": 40.768066, "lon": -73.992778, "power_kw": 50.0, "plugs": 2}, {"id": 226943, "name": "MB MANHATTAN MB MANHATTANDC2", "lat": 40.768058, "lon": -73.992735, "power_kw": 50.0, "plugs": 2}, {"id": 92532, "name": "MTP 625 W 57th Street", "lat": 40.77108, "lon": -73.993142, "power_kw": 16.0, "plugs": 1}, {"id": 82179, "name": "MTP Parking, the Helena", "lat": 40.770709, "lon": -73.991725, "power_kw": 8.0, "plugs": 1}, {"id": 226967, "name": "WATERLINE 2W STATION 2", "lat": 40.7733, "lon": -73.991532, "power_kw": 3.7, "plugs": 1}, {"id": 354069, "name": "1 WATERLINE STATION#2", "lat": 40.772952, "lon": -73.992622, "power_kw": 3.7, "plugs": 1}, {"id": 354072, "name": "1 WATERLINE STATION#3", "lat": 40.773005, "lon": -73.992868, "power_kw": 3.7, "plugs": 1}, {"id": 226964, "name": "1 WATERLINE STATION#7", "lat": 40.772839, "lon": -73.992493, "power_kw": 3.7, "plugs": 1}, {"id": 246417, "name": "Quik Park 40 Riverside Blvd - Tesla Destination", "lat": 40.77373, "lon": -73.989713, "power_kw": 3.7, "plugs": 1}, {"id": 81542, "name": "Icon 80 Riverside BLVD", "lat": 40.775374, "lon": -73.989687, "power_kw": 8.0, "plugs": 1}, {"id": 81716, "name": "Icon 299 Peal Street Seaport Parking", "lat": 40.775374, "lon": -73.989687, "power_kw": 6.0, "plugs": 1}, {"id": 82296, "name": "Icon Parking 100 Riverside Blvd.", "lat": 40.775474, "lon": -73.989763, "power_kw": 8.0, "plugs": 1}, {"id": 81928, "name": "Icon Parking 101 West End Ave", "lat": 40.775065, "lon": -73.988572, "power_kw": 8.0, "plugs": 1}, {"id": 67388, "name": "Icon Parking - Tesla", "lat": 40.775111, "lon": -73.9886025, "power_kw": 10.0, "plugs": 1}, {"id": 28435, "name": "Roosevelt Hospital Garage", "lat": 40.77079, "lon": -73.988508, "power_kw": 3.7, "plugs": 2}, {"id": 79929, "name": "GGMC Parking Alfred", "lat": 40.771555, "lon": -73.986428, "power_kw": 8.0, "plugs": 1}, {"id": 246402, "name": "44 W 62nd St.", "lat": 40.7708, "lon": -73.98323, "power_kw": 3.7, "plugs": 1}, {"id": 82148, "name": "Icon Parking 160 W 66th Street", "lat": 40.774541, "lon": -73.983977, "power_kw": 8.0, "plugs": 1}, {"id": 246426, "name": "Icon Parking OMNI - Tesla Destination", "lat": 40.77592, "lon": -73.98313, "power_kw": 3.7, "plugs": 1}, {"id": 354121, "name": "303 W 66th St Apts - 303 W 66th RMA", "lat": 40.776554, "lon": -73.9876401, "power_kw": 3.7, "plugs": 1}, {"id": 67394, "name": "Quik Park - Tesla", "lat": 40.7784889, "lon": -73.9882723, "power_kw": 16.0, "plugs": 1}, {"id": 67395, "name": "Icon Parking - Tesla", "lat": 40.7796752, "lon": -73.9873963, "power_kw": 8.0, "plugs": 1}, {"id": 67393, "name": "ParkIt - Tesla", "lat": 40.7779493, "lon": -73.9853955, "power_kw": 8.0, "plugs": 1}, {"id": 246435, "name": "Energy Plus Site 8", "lat": 40.781104, "lon": -73.984478, "power_kw": 3.7, "plugs": 1}, {"id": 354176, "name": "300 West End Ave - Basement Garage", "lat": 40.781139, "lon": -73.983118, "power_kw": 3.7, "plugs": 1}, {"id": 28444, "name": "CARCHARGING", "lat": 40.7892181, "lon": -73.9749593, "power_kw": 3.0, "plugs": 2}, {"id": 246441, "name": "160 W 84th St", "lat": 40.786312, "lon": -73.97569, "power_kw": 3.7, "plugs": 1}, {"id": 82348, "name": "Ipark Nyc 88th Street Garage", "lat": 40.788008, "lon": -73.971611, "power_kw": 8.0, "plugs": 1}, {"id": 81482, "name": "Icon Parking 225 W 83 Street", "lat": 40.786099, "lon": -73.977303, "power_kw": 8.0, "plugs": 1}, {"id": 74556, "name": "Rapidpark - Tesla", "lat": 40.7850015, "lon": -73.982032, "power_kw": 16.0, "plugs": 1}, {"id": 90432, "name": "Rapidpark 254 W 79th Street", "lat": 40.78411, "lon": -73.980641, "power_kw": 16.0, "plugs": 1}, {"id": 226986, "name": "125 W 76th Street", "lat": 40.7803975, "lon": -73.9777289, "power_kw": 3.7, "plugs": 1}, {"id": 103288, "name": "New York, NY - W 75th Street (Valet & Pay to Park)", "lat": 40.780976, "lon": -73.980414, "power_kw": 72.0, "plugs": 1}, {"id": 354172, "name": "W 75th Parking Garage - Tesla Supercharger", "lat": 40.780976, "lon": -73.980414, "power_kw": 50.0, "plugs": 1}, {"id": 81805, "name": "Champion Parking W 76th Street", "lat": 40.781547, "lon": -73.980475, "power_kw": 8.0, "plugs": 1}, {"id": 100578, "name": "Champion Parking 74 LLC", "lat": 40.780027, "lon": -73.982823, "power_kw": 13.0, "plugs": 1}, {"id": 354163, "name": "Champion Parking 74 LLC - Tesla Destination", "lat": 40.780027, "lon": -73.982823, "power_kw": 3.7, "plugs": 1}, {"id": 458439, "name": "Highrise Parking", "lat": 40.777905, "lon": -73.982299, "power_kw": 3.7, "plugs": 1}, {"id": 246428, "name": "Lincoln Square Garage", "lat": 40.776152, "lon": -73.98282, "power_kw": 3.7, "plugs": 1}, {"id": 91852, "name": "GMC Copley Parking", "lat": 40.775283, "lon": -73.981627, "power_kw": 16.0, "plugs": 1}, {"id": 246421, "name": "ANSONIA", "lat": 40.77493, "lon": -73.980969, "power_kw": 3.7, "plugs": 1}, {"id": 87270, "name": "Rapidpark 15 W 72ND Street", "lat": 40.776813, "lon": -73.977083, "power_kw": 10.0, "plugs": 1}, {"id": 354182, "name": "AMNH-PARKING STATION 4", "lat": 40.781478, "lon": -73.974009, "power_kw": 3.7, "plugs": 1}, {"id": 354180, "name": "AMNH-PARKING STATION 2", "lat": 40.781414, "lon": -73.973682, "power_kw": 3.7, "plugs": 1}, {"id": 354184, "name": "AMNH-PARKING STATION 3", "lat": 40.781511, "lon": -73.973807, "power_kw": 3.7, "plugs": 1}, {"id": 90430, "name": "MPG 923 5th Ave", "lat": 40.773004, "lon": -73.966152, "power_kw": 16.0, "plugs": 1}, {"id": 92265, "name": "Rapidpark 35 E 75th Street", "lat": 40.77364, "lon": -73.963722, "power_kw": 16.0, "plugs": 1}, {"id": 79854, "name": "The Carlyle Hotel, A Rosewood Hotel", "lat": 40.77438, "lon": -73.963157, "power_kw": 8.0, "plugs": 1}, {"id": 79624, "name": "GGMC Parking 51-53 E 76th St Carlyle Hotel", "lat": 40.774207, "lon": -73.96282, "power_kw": 8.0, "plugs": 1}, {"id": 354068, "name": "NYC Parking 155 East 76th Street Garage Corp.", "lat": 40.77292688873804, "lon": -73.95955810985014, "power_kw": 3.7, "plugs": 1}, {"id": 354084, "name": "165 E 77 ST Garage", "lat": 40.773528, "lon": -73.959538, "power_kw": 3.7, "plugs": 1}, {"id": 246419, "name": "101 E 78th St", "lat": 40.774878, "lon": -73.960671, "power_kw": 3.7, "plugs": 1}, {"id": 67391, "name": "GGMC Parking - Tesla", "lat": 40.7760455, "lon": -73.9619154, "power_kw": 8.0, "plugs": 1}, {"id": 92293, "name": "Rapidpark 920 Park Avenue", "lat": 40.776574, "lon": -73.96047, "power_kw": 16.0, "plugs": 1}, {"id": 81977, "name": "Ipark Nyc 1025 83RD", "lat": 40.779211, "lon": -73.960949, "power_kw": 8.0, "plugs": 1}, {"id": 246436, "name": "11 East 86th Street", "lat": 40.78147, "lon": -73.95986, "power_kw": 3.7, "plugs": 1}, {"id": 82130, "name": "Rapidpark 600 Columbus Ave", "lat": 40.78859, "lon": -73.97118, "power_kw": 8.0, "plugs": 1}, {"id": 105344, "name": "Rapidpark 600 Columbus Ave", "lat": 40.788614, "lon": -73.97118, "power_kw": 10.0, "plugs": 1}, {"id": 246443, "name": "West 90th Garage Corp", "lat": 40.789298, "lon": -73.970535, "power_kw": 3.7, "plugs": 1}, {"id": 227001, "name": "4 W 93rd St", "lat": 40.789958, "lon": -73.966488, "power_kw": 3.7, "plugs": 1}, {"id": 92336, "name": "Icon Parking 1056 5th Avenue", "lat": 40.782031, "lon": -73.959484, "power_kw": 16.0, "plugs": 1}, {"id": 81581, "name": "Champion Parking 90 LLC", "lat": 40.783085, "lon": -73.956304, "power_kw": 16.0, "plugs": 1}, {"id": 354174, "name": "The Carlton - Basement", "lat": 40.78104, "lon": -73.956345, "power_kw": 3.7, "plugs": 1}, {"id": 67398, "name": "GGMC Parking - Tesla", "lat": 40.7855606, "lon": -73.9546989, "power_kw": 8.0, "plugs": 1}, {"id": 97585, "name": "GGMC Ruppert Car Park", "lat": 40.78098, "lon": -73.951145, "power_kw": 8.0, "plugs": 1}, {"id": 354173, "name": "GGMC Ruppert Car Park - Tesla Destination", "lat": 40.78098, "lon": -73.951145, "power_kw": 3.7, "plugs": 1}, {"id": 354191, "name": "245 E 90th - Garage", "lat": 40.782305, "lon": -73.951186, "power_kw": 3.7, "plugs": 1}, {"id": 82055, "name": "GGMC Yorkville Car Park", "lat": 40.782212, "lon": -73.95023, "power_kw": 8.0, "plugs": 1}, {"id": 354186, "name": "Knickerbocker Plaza Car Park - Lower Level", "lat": 40.781785, "lon": -73.949642, "power_kw": 3.7, "plugs": 1}, {"id": 246438, "name": "231 E 94th Street", "lat": 40.78351, "lon": -73.94888, "power_kw": 3.7, "plugs": 1}, {"id": 82304, "name": "Ipark Nyc the Carnegie Garage", "lat": 40.783536, "lon": -73.949507, "power_kw": 8.0, "plugs": 1}, {"id": 354210, "name": "Highgate - Garage", "lat": 40.784219, "lon": -73.950323, "power_kw": 3.7, "plugs": 1}, {"id": 246440, "name": "Carnegie Hill", "lat": 40.784865, "lon": -73.948526, "power_kw": 3.7, "plugs": 1}, {"id": 84422, "name": "Ipark 1510 Lex Garage Corp.", "lat": 40.787402, "lon": -73.950546, "power_kw": 16.0, "plugs": 1}, {"id": 246442, "name": "1510 Lex Garage", "lat": 40.786732, "lon": -73.950411, "power_kw": 3.7, "plugs": 1}, {"id": 92304, "name": "MPG 266 E 97 St", "lat": 40.785296, "lon": -73.947487, "power_kw": 16.0, "plugs": 1}, {"id": 92299, "name": "Rapidpark 340 94th Street", "lat": 40.782091, "lon": -73.946029, "power_kw": 16.0, "plugs": 1}, {"id": 104918, "name": "MPG 340 East 93RD", "lat": 40.781413, "lon": -73.946377, "power_kw": 10.0, "plugs": 1}, {"id": 354178, "name": "MPG 340 East 93rd - Tesla Destination", "lat": 40.781413, "lon": -73.946377, "power_kw": 3.7, "plugs": 1}, {"id": 354137, "name": "The Andover - Garage", "lat": 40.777778, "lon": -73.946111, "power_kw": 3.7, "plugs": 1}, {"id": 354126, "name": "Rivers Bend - Garage", "lat": 40.776952, "lon": -73.946235, "power_kw": 3.7, "plugs": 1}, {"id": 67392, "name": "Icon Parking - Tesla", "lat": 40.7762739, "lon": -73.9444162, "power_kw": 8.0, "plugs": 1}, {"id": 246425, "name": "170 E End Ave", "lat": 40.775792, "lon": -73.944015, "power_kw": 3.7, "plugs": 1}, {"id": 246429, "name": "200 East End Ave", "lat": 40.77729, "lon": -73.94355, "power_kw": 3.7, "plugs": 1}, {"id": 354061, "name": "One Gracie Terrace - Basement Level 1 and 2", "lat": 40.77245, "lon": -73.945767, "power_kw": 3.7, "plugs": 1}, {"id": 246409, "name": "imPark 611 E 83rd Street - Tesla Destination", "lat": 40.772681, "lon": -73.945488, "power_kw": 3.7, "plugs": 1}, {"id": 226973, "name": "110 East End Ave", "lat": 40.77447, "lon": -73.94599, "power_kw": 3.7, "plugs": 1}, {"id": 67385, "name": "Champion Parking - Tesla", "lat": 40.772805, "lon": -73.946965, "power_kw": 16.0, "plugs": 1}, {"id": 81860, "name": "Champion Parking 60 East End Avenue", "lat": 40.772712, "lon": -73.947045, "power_kw": 8.0, "plugs": 1}, {"id": 246408, "name": "55 East End Ave", "lat": 40.772, "lon": -73.94639, "power_kw": 3.7, "plugs": 1}, {"id": 85067, "name": "Ipark 530 E 80th Street", "lat": 40.771382, "lon": -73.948344, "power_kw": 8.0, "plugs": 1}, {"id": 354060, "name": "The Lucerne - First Floor - Garage 1st Floor", "lat": 40.772356, "lon": -73.95332, "power_kw": 3.7, "plugs": 1}, {"id": 82366, "name": "GGMC Parking 415 E 79th", "lat": 40.771918, "lon": -73.951679, "power_kw": 13.0, "plugs": 1}, {"id": 90356, "name": "Impark 422 E 79th Street", "lat": 40.771879, "lon": -73.951627, "power_kw": 16.0, "plugs": 1}, {"id": 82002, "name": "Ipark Nyc E 80th Street", "lat": 40.77331, "lon": -73.952621, "power_kw": 8.0, "plugs": 1}, {"id": 354086, "name": "330 E 80th St - Garage", "lat": 40.773622, "lon": -73.95325, "power_kw": 3.7, "plugs": 1}, {"id": 81695, "name": "Quik Park 82ND Street LLC", "lat": 40.774511, "lon": -73.952039, "power_kw": 16.0, "plugs": 1}, {"id": 67387, "name": "Quik Park - Tesla", "lat": 40.7743149, "lon": -73.9519209, "power_kw": 8.0, "plugs": 1}, {"id": 105379, "name": "Rapidpark 351 East 83RD", "lat": 40.775123, "lon": -73.951193, "power_kw": 10.0, "plugs": 1}, {"id": 354101, "name": "Rapidpark 351 East 83rd - Tesla Destination", "lat": 40.775123, "lon": -73.951193, "power_kw": 3.7, "plugs": 1}, {"id": 67390, "name": "Quik Park - Tesla", "lat": 40.7759802, "lon": -73.9479174, "power_kw": 16.0, "plugs": 1}, {"id": 67389, "name": "CARCHARGING", "lat": 40.775377, "lon": -73.950411, "power_kw": 3.0, "plugs": 1}, {"id": 114886, "name": "Ipark 400 E 85th St", "lat": 40.7759529, "lon": -73.949738, "power_kw": 10.0, "plugs": 1}, {"id": 354111, "name": "iPark 400 E 85th St - Tesla Destination", "lat": 40.775953, "lon": -73.949738, "power_kw": 3.7, "plugs": 1}, {"id": 354129, "name": "Fairmount Tenants Group - Garage", "lat": 40.777035, "lon": -73.948773, "power_kw": 3.7, "plugs": 1}, {"id": 354125, "name": "141 E 89th St - Garage", "lat": 40.776897, "lon": -73.948795, "power_kw": 3.7, "plugs": 1}, {"id": 354152, "name": "Citizen 360 Condominium", "lat": 40.77873, "lon": -73.94838, "power_kw": 3.7, "plugs": 1}, {"id": 458440, "name": "Icon Parking - Claridge 87 Parking", "lat": 40.7796871, "lon": -73.952595, "power_kw": 3.7, "plugs": 1}, {"id": 92049, "name": "GMC Parking Narragansett", "lat": 40.7758, "lon": -73.95087, "power_kw": 16.0, "plugs": 1}, {"id": 246433, "name": "171 E 84th St.", "lat": 40.77798, "lon": -73.95555, "power_kw": 3.7, "plugs": 1}, {"id": 263059, "name": "Central Parking - 115 E 87th St", "lat": 40.780678, "lon": -73.956269, "power_kw": 3.7, "plugs": 1}, {"id": 354151, "name": "113 East 84th Street", "lat": 40.77866, "lon": -73.95739, "power_kw": 3.7, "plugs": 1}, {"id": 354160, "name": "118 E 86th Street", "lat": 40.77968, "lon": -73.95657, "power_kw": 3.7, "plugs": 1}, {"id": 81962, "name": "Ipark 41 E 85th Street", "lat": 40.779876, "lon": -73.958579, "power_kw": 16.0, "plugs": 1}, {"id": 354139, "name": "CHHA2 Garages LLC", "lat": 40.777924, "lon": -73.957245, "power_kw": 3.7, "plugs": 1}, {"id": 246431, "name": "Duford Studios", "lat": 40.777737, "lon": -73.957413, "power_kw": 3.7, "plugs": 1}, {"id": 81493, "name": "GMC 111 E 82ND St", "lat": 40.77735, "lon": -73.958352, "power_kw": 8.0, "plugs": 1}, {"id": 28437, "name": "CARCHARGING", "lat": 40.774703, "lon": -73.956695, "power_kw": 3.0, "plugs": 1}, {"id": 246418, "name": "305 East 80th Street", "lat": 40.77397, "lon": -73.9539, "power_kw": 3.7, "plugs": 1}, {"id": 246416, "name": "Belmont Parking", "lat": 40.773472, "lon": -73.955287, "power_kw": 3.7, "plugs": 1}, {"id": 81618, "name": "Parkright 300 E 77th St", "lat": 40.771794, "lon": -73.955624, "power_kw": 8.0, "plugs": 1}, {"id": 125175, "name": "Impark 188 E 78th St", "lat": 40.773665, "lon": -73.958333, "power_kw": 10.0, "plugs": 1}, {"id": 354088, "name": "IMPark 188 E 78th St - Tesla Destination", "lat": 40.773665, "lon": -73.958333, "power_kw": 3.7, "plugs": 1}, {"id": 354081, "name": "iPark NYC E 77th Street - Tesla Destination", "lat": 40.773415, "lon": -73.959234, "power_kw": 3.7, "plugs": 1}, {"id": 103654, "name": "Rapidpark 150 East 77th Street", "lat": 40.773256, "lon": -73.959334, "power_kw": 8.0, "plugs": 1}, {"id": 354076, "name": "Rapidpark 150 East 77th Street - Tesla Destination", "lat": 40.773256, "lon": -73.959334, "power_kw": 3.7, "plugs": 1}, {"id": 354042, "name": "Mayfair Apts - Garage", "lat": 40.770958, "lon": -73.958625, "power_kw": 3.7, "plugs": 1}, {"id": 81521, "name": "GGMC Parking E 74th Street", "lat": 40.769947, "lon": -73.956989, "power_kw": 10.0, "plugs": 1}, {"id": 246398, "name": "333 E 75th St.", "lat": 40.7702, "lon": -73.95525, "power_kw": 3.7, "plugs": 1}, {"id": 354011, "name": "340 E 74th St.", "lat": 40.76928, "lon": -73.95586, "power_kw": 3.7, "plugs": 1}, {"id": 354018, "name": "Parking Systems at 343 E 74th", "lat": 40.76957, "lon": -73.95589, "power_kw": 3.7, "plugs": 1}, {"id": 353971, "name": "The Somerset - Garage", "lat": 40.767348, "lon": -73.953832, "power_kw": 3.7, "plugs": 1}, {"id": 354017, "name": "The Stratford - Garage", "lat": 40.76953, "lon": -73.9519, "power_kw": 3.7, "plugs": 1}, {"id": 467213, "name": "The Pavilion - Parking Garage", "lat": 40.769563, "lon": -73.9508, "power_kw": 3.7, "plugs": 1}, {"id": 246387, "name": "Enterprise Parking 219 E 69th St - Tesla Destination", "lat": 40.767342, "lon": -73.960835, "power_kw": 3.7, "plugs": 1}, {"id": 246389, "name": "Enterprise Parking 200 E 69th St - Tesla Destination", "lat": 40.767615, "lon": -73.961509, "power_kw": 3.7, "plugs": 1}, {"id": 82104, "name": "Ipark 200 E 70th Street", "lat": 40.768283, "lon": -73.961149, "power_kw": 16.0, "plugs": 1}, {"id": 246394, "name": "203 E 71st St.", "lat": 40.76894, "lon": -73.96047, "power_kw": 3.7, "plugs": 1}, {"id": 67384, "name": "iPark - Tesla", "lat": 40.7704102, "lon": -73.9605523, "power_kw": 8.0, "plugs": 1}, {"id": 226950, "name": "191 East 71st Street", "lat": 40.76945, "lon": -73.96154, "power_kw": 3.7, "plugs": 1}, {"id": 354027, "name": "East 71st Parking - Basement", "lat": 40.770094, "lon": -73.962964, "power_kw": 3.7, "plugs": 1}, {"id": 67383, "name": "Prime Parking Systems - Tesla", "lat": 40.7679116, "lon": -73.9635652, "power_kw": 16.0, "plugs": 1}, {"id": 82220, "name": "Prime Parking Systems - 155 E 68th Street", "lat": 40.767743, "lon": -73.963665, "power_kw": 8.0, "plugs": 1}, {"id": 105407, "name": "Ipark 650 Parking Corp", "lat": 40.768144, "lon": -73.966736, "power_kw": 10.0, "plugs": 1}, {"id": 353992, "name": "iPark 650 Parking Corp - Tesla Destination", "lat": 40.768144, "lon": -73.966736, "power_kw": 3.7, "plugs": 1}, {"id": 353978, "name": "650 Park Ave", "lat": 40.76775, "lon": -73.9666, "power_kw": 3.7, "plugs": 1}, {"id": 246396, "name": "301 E. 79th St.", "lat": 40.76939, "lon": -73.96546, "power_kw": 3.7, "plugs": 1}, {"id": 354057, "name": "Standard Parking 910 5th Avenue - Tesla Destination", "lat": 40.772175, "lon": -73.96637, "power_kw": 3.7, "plugs": 1}, {"id": 82253, "name": "Chelnik Parking Nyc 880 5th", "lat": 40.770292, "lon": -73.967735, "power_kw": 13.0, "plugs": 1}, {"id": 62151, "name": "BEAM CHARGING", "lat": 40.769134, "lon": -73.968707, "power_kw": 3.0, "plugs": 1}, {"id": 84987, "name": "Ipark 3 E 67th Street", "lat": 40.769061, "lon": -73.96876, "power_kw": 8.0, "plugs": 1}, {"id": 82137, "name": "GGMC Parking 10 W 66th St Garage", "lat": 40.772742, "lon": -73.979503, "power_kw": 8.0, "plugs": 1}, {"id": 354083, "name": "2 Lincoln Square", "lat": 40.77349758816229, "lon": -73.98137367362845, "power_kw": 3.7, "plugs": 1}, {"id": 85704, "name": "Glenwood Grand Tier Parking", "lat": 40.772574, "lon": -73.981951, "power_kw": 12.0, "plugs": 1}, {"id": 246404, "name": "Icon Parking - One Lincoln Plaza", "lat": 40.771626, "lon": -73.981032, "power_kw": 3.7, "plugs": 1}, {"id": 81344, "name": "Icon Parking 30 W 63RD St", "lat": 40.770772, "lon": -73.981795, "power_kw": 16.0, "plugs": 1}, {"id": 263058, "name": "26-19 2nd Street", "lat": 40.7732937, "lon": -73.934466, "power_kw": 3.7, "plugs": 1}, {"id": 142477, "name": "Shore Towers", "lat": 40.7765717, "lon": -73.9283585, "power_kw": 3.7, "plugs": 1}, {"id": 125159, "name": "Icon Parking 175 W 90th Street", "lat": 40.790046, "lon": -73.972531, "power_kw": 10.0, "plugs": 1}, {"id": 354251, "name": "Icon Parking 175 W 90th Street - Tesla Destination", "lat": 40.790046, "lon": -73.972531, "power_kw": 3.7, "plugs": 1}, {"id": 354253, "name": "Mt Sinai Gustave Levy Pl - Garage", "lat": 40.7901, "lon": -73.9537, "power_kw": 3.7, "plugs": 1}, {"id": 227040, "name": "MOTT HAVEN", "lat": 40.808441, "lon": -73.91811, "power_kw": 3.7, "plugs": 1}, {"id": 354415, "name": "Wingate by Wyndham Haven Park - Tesla Destination", "lat": 40.812851, "lon": -73.928313, "power_kw": 3.7, "plugs": 1}, {"id": 294600, "name": "(SP+) - Third at Bankside Garage", "lat": 40.80837381919788, "lon": -73.93106281757356, "power_kw": 3.7, "plugs": 1}, {"id": 354332, "name": "iPark - The Tapestry", "lat": 40.80239, "lon": -73.93438, "power_kw": 3.7, "plugs": 1}, {"id": 246444, "name": "NYC FLEET DPR_ICAHN_1_L3", "lat": 40.792194, "lon": -73.92455, "power_kw": 50.0, "plugs": 2}, {"id": 133996, "name": "Park N Go - E 121 St", "lat": 40.800793, "lon": -73.9371, "power_kw": 10.0, "plugs": 1}, {"id": 354322, "name": "Park N Go - E 121 St - Tesla Destination", "lat": 40.800793, "lon": -73.9371, "power_kw": 3.7, "plugs": 1}, {"id": 71531, "name": "iPark - Tesla", "lat": 40.8017721, "lon": -73.9485568, "power_kw": 8.0, "plugs": 1}, {"id": 227035, "name": "iPark 314 W 120th Street - Tesla Destination", "lat": 40.807356, "lon": -73.954354, "power_kw": 3.7, "plugs": 1}, {"id": 28446, "name": "MP 102 LLC", "lat": 40.7912673, "lon": -73.9520388, "power_kw": 3.0, "plugs": 1}, {"id": 92474, "name": "MPG 10 E 102nd Street", "lat": 40.79136, "lon": -73.952155, "power_kw": 16.0, "plugs": 1}, {"id": 85090, "name": "Rapidpark 9-11 W 100th Street", "lat": 40.794519, "lon": -73.963445, "power_kw": 8.0, "plugs": 1}, {"id": 81762, "name": "Ipark Nyc 455 Central Park West", "lat": 40.797771, "lon": -73.96142, "power_kw": 8.0, "plugs": 1}, {"id": 71530, "name": "iPark - Tesla", "lat": 40.797771, "lon": -73.9614319, "power_kw": 16.0, "plugs": 1}, {"id": 246451, "name": "iPark 455 Central Park West - Tesla Destination", "lat": 40.797743, "lon": -73.960441, "power_kw": 3.7, "plugs": 1}, {"id": 92237, "name": "Rapidpark 210 W 102nd Street", "lat": 40.798108, "lon": -73.968204, "power_kw": 16.0, "plugs": 1}, {"id": 92289, "name": "Rapidpark 204 W 101st Street", "lat": 40.797359, "lon": -73.968718, "power_kw": 16.0, "plugs": 1}, {"id": 81911, "name": "Quik Park 808 Garage LLC", "lat": 40.793877, "lon": -73.967498, "power_kw": 16.0, "plugs": 1}, {"id": 246445, "name": "Discover 97 Parking LLC", "lat": 40.793416, "lon": -73.967719, "power_kw": 3.7, "plugs": 1}, {"id": 67400, "name": "Icon Parking - Tesla", "lat": 40.793531, "lon": -73.970223, "power_kw": 8.0, "plugs": 1}, {"id": 67401, "name": "Quik Park - Tesla", "lat": 40.7953925, "lon": -73.9721339, "power_kw": 8.0, "plugs": 1}, {"id": 246447, "name": "Apple West Parking", "lat": 40.795783, "lon": -73.973678, "power_kw": 3.7, "plugs": 1}, {"id": 84119, "name": "Manhattan Parking 110 LLC", "lat": 40.803934, "lon": -73.966049, "power_kw": 12.0, "plugs": 1}, {"id": 88340, "name": "MPG 543 W 110th Street Garage", "lat": 40.803963, "lon": -73.966032, "power_kw": 8.0, "plugs": 1}, {"id": 92235, "name": "Propark 401 W 110th Street", "lat": 40.802151, "lon": -73.961705, "power_kw": 16.0, "plugs": 1}, {"id": 100576, "name": "Champion Parking 113 LLC", "lat": 40.80443, "lon": -73.961373, "power_kw": 8.0, "plugs": 1}, {"id": 354344, "name": "Champion Parking 113 LLC - Tesla Destination", "lat": 40.80443, "lon": -73.961373, "power_kw": 3.7, "plugs": 1}, {"id": 97785, "name": "Rapidpark 480 Riverside (120th St)", "lat": 40.811187, "lon": -73.963571, "power_kw": 8.0, "plugs": 1}, {"id": 354398, "name": "Rapidpark 480 Riverside (120th St) - Tesla Destination", "lat": 40.811187, "lon": -73.963571, "power_kw": 3.7, "plugs": 1}, {"id": 227046, "name": "532 W 122nd St", "lat": 40.811446, "lon": -73.960477, "power_kw": 3.7, "plugs": 1}, {"id": 354406, "name": "CLAREMONT GRG STATION 7", "lat": 40.811821, "lon": -73.962209, "power_kw": 3.7, "plugs": 1}, {"id": 354404, "name": "CLAREMONT GRG STATION 4", "lat": 40.811638, "lon": -73.962233, "power_kw": 3.7, "plugs": 1}, {"id": 354485, "name": "Concourse Village - Garage", "lat": 40.824642, "lon": -73.923013, "power_kw": 3.7, "plugs": 1}, {"id": 62156, "name": "East 149th Street Municipal Parking Garage", "lat": 40.817326, "lon": -73.920914, "power_kw": 3.7, "plugs": 1}, {"id": 458443, "name": "Gateway Center at Bronx Terminal Market", "lat": 40.822142, "lon": -73.931128, "power_kw": 3.7, "plugs": 1}, {"id": 227073, "name": "MARINERS TOWER STATION ONE", "lat": 40.827263, "lon": -73.97226, "power_kw": 3.7, "plugs": 1}, {"id": 131501, "name": "300 W 135 St - Little Man Parking", "lat": 40.816777, "lon": -73.947435, "power_kw": 10.0, "plugs": 1}, {"id": 354456, "name": "300 W 135 St - Little Man Parking - Tesla Destination", "lat": 40.816777, "lon": -73.947435, "power_kw": 3.7, "plugs": 1}, {"id": 354534, "name": "519 W 161st St.", "lat": 40.83597, "lon": -73.94133, "power_kw": 3.7, "plugs": 1}, {"id": 131504, "name": "4320 Broadway-Park-It", "lat": 40.852461, "lon": -73.934084, "power_kw": 10.0, "plugs": 1}, {"id": 354598, "name": "4320 Broadway-PARK-it - Tesla Destination", "lat": 40.852461, "lon": -73.934084, "power_kw": 3.7, "plugs": 1}, {"id": 142518, "name": "Yeshiva University", "lat": 40.8506642, "lon": -73.9306379, "power_kw": 3.7, "plugs": 1}, {"id": 131502, "name": "506 W 181 St Garage-Park-It", "lat": 40.848358, "lon": -73.931743, "power_kw": 10.0, "plugs": 1}, {"id": 354585, "name": "506 W 181 St Garage-PARK-it - Tesla Destination", "lat": 40.848358, "lon": -73.931743, "power_kw": 3.7, "plugs": 1}, {"id": 282604, "name": "The Bridge Towers 7", "lat": 40.847563, "lon": -73.934481, "power_kw": 3.7, "plugs": 1}, {"id": 282605, "name": "Bridge Towers Location 2", "lat": 40.847958, "lon": -73.935109, "power_kw": 3.7, "plugs": 1}, {"id": 354572, "name": "2360 Amsterdam Ave - Basement 2", "lat": 40.846036, "lon": -73.933078, "power_kw": 3.7, "plugs": 1}, {"id": 263076, "name": "NYC FLEET NYPD_SRG2", "lat": 40.840283, "lon": -73.928213, "power_kw": 3.7, "plugs": 1}, {"id": 354581, "name": "Townsend Ave - Parking lot Ground level", "lat": 40.847928, "lon": -73.911582, "power_kw": 3.7, "plugs": 1}, {"id": 131469, "name": "528 W 162nd Garage-Park-It", "lat": 40.836588, "lon": -73.941328, "power_kw": 10.0, "plugs": 1}, {"id": 354540, "name": "528 W 162nd Garage-PARK-it - Tesla Destination", "lat": 40.836588, "lon": -73.941328, "power_kw": 3.7, "plugs": 1}, {"id": 227090, "name": "115 Fort Washington Ave", "lat": 40.839756, "lon": -73.943345, "power_kw": 3.7, "plugs": 1}, {"id": 125169, "name": "Centerpark 4172 Broadway", "lat": 40.847422, "lon": -73.937922, "power_kw": 10.0, "plugs": 1}, {"id": 354578, "name": "CenterPark 4172 Broadway - Tesla Destination", "lat": 40.847422, "lon": -73.937922, "power_kw": 3.7, "plugs": 1}, {"id": 142519, "name": "GMC Parking - 200 Cabrini Blvd - Station 1", "lat": 40.854575, "lon": -73.938954, "power_kw": 3.7, "plugs": 1}, {"id": 102858, "name": "Spectrum", "lat": 40.87121, "lon": -73.911616, "power_kw": 3.7, "plugs": 1}, {"id": 131487, "name": "3050 Corlear Ave - Nagle Parking Inc.", "lat": 40.880142, "lon": -73.907385, "power_kw": 10.0, "plugs": 1}, {"id": 354757, "name": "3050 Corlear Ave - Nagle Parking Inc. - Tesla Destination", "lat": 40.880142, "lon": -73.907385, "power_kw": 3.7, "plugs": 1}, {"id": 467273, "name": "555 Kappock St - Garage", "lat": 40.878087, "lon": -73.917051, "power_kw": 3.7, "plugs": 1}, {"id": 108865, "name": "Century Parking Corp", "lat": 40.878532, "lon": -73.916201, "power_kw": 6.0, "plugs": 1}, {"id": 354744, "name": "Century Parking Corp - Tesla Destination", "lat": 40.878304, "lon": -73.915227, "power_kw": 3.7, "plugs": 1}, {"id": 282611, "name": "AAA NORTHEAST STATION3A", "lat": 40.870827, "lon": -73.912633, "power_kw": 3.7, "plugs": 1}], "prices_hourly": [0.19, 0.19, 0.19, 0.19, 0.19, 0.19, 0.25, 0.25, 0.25, 0.25, 0.25, 0.25, 0.25, 0.25, 0.43000000000000005, 0.43000000000000005, 0.43000000000000005, 0.43000000000000005, 0.43000000000000005, 0.43000000000000005, 0.32000000000000006, 0.32000000000000006, 0.32000000000000006, 0.25], "network": {"n_edges": 9914, "avg_edge_len_m": 116.1500379936893}}